[{"Id":"9281","Name":"1st Avenue, Tarxien","Longitude":"14.5230757625605","Latitude":"35.8674871586973"},{"Id":"9367","Name":"1st Avenue, Fgura","Longitude":"14.5231964697853","Latitude":"35.8676769747655"},{"Id":"8978","Name":"Abbati, Mosta","Longitude":"14.4306374476739","Latitude":"35.9096941115205"},{"Id":"8488","Name":"Abdosir, Marsaxlokk","Longitude":"14.5486376956325","Latitude":"35.8426564723742"},{"Id":"8217","Name":"Abos, Birkirkara","Longitude":"14.4591634159881","Latitude":"35.9032713802878"},{"Id":"8241","Name":"Abos, Birkirkara","Longitude":"14.4592619829898","Latitude":"35.9034431274642"},{"Id":"8615","Name":"Abram, Żebbuġ","Longitude":"14.2348039420792","Latitude":"36.0676339733599"},{"Id":"8621","Name":"Abram, Żebbuġ","Longitude":"14.2349913985856","Latitude":"36.0677704038353"},{"Id":"7847","Name":"Addolorata, Paola","Longitude":"14.4991682523294","Latitude":"35.8733855309713"},{"Id":"9057","Name":"Addolorata, Paola","Longitude":"14.4994267726476","Latitude":"35.8727915507527"},{"Id":"9560","Name":"Addolorata, Paola","Longitude":"14.4998066272421","Latitude":"35.8722792194242"},{"Id":"8031","Name":"Adenau, Mellieħa","Longitude":"14.3617046107809","Latitude":"35.959250298358"},{"Id":"9470","Name":"Adenau, Mellieħa","Longitude":"14.3618273874494","Latitude":"35.9591517771727"},{"Id":"7741","Name":"Agira, Żebbuġ (Malta)","Longitude":"14.4430605610697","Latitude":"35.8733729230958"},{"Id":"7743","Name":"Agira, Żebbuġ (Malta)","Longitude":"14.4431262039015","Latitude":"35.8734904354143"},{"Id":"9271","Name":"Ahmar, Santa Venera","Longitude":"14.4742234505377","Latitude":"35.8881914130777"},{"Id":"9272","Name":"Ahmar, Santa Venera","Longitude":"14.4736461341108","Latitude":"35.8883692043132"},{"Id":"8039","Name":"Ahrax, Marfa","Longitude":"14.3418771168864","Latitude":"35.9859201284444"},{"Id":"8046","Name":"Ahrax, Marfa","Longitude":"14.3422637890655","Latitude":"35.9861115803173"},{"Id":"9211","Name":"Airport 1, Luqa","Longitude":"14.4959076420216","Latitude":"35.8494974127322"},{"Id":"9212","Name":"Airport 2, Luqa","Longitude":"14.4963529942644","Latitude":"35.8491206056741"},{"Id":"9213","Name":"Airport 3, Luqa","Longitude":"14.4966757324193","Latitude":"35.8488695082545"},{"Id":"7894","Name":"Albert, Marsa","Longitude":"14.494927580203","Latitude":"35.8748103398655"},{"Id":"9042","Name":"Alessio, Żabbar","Longitude":"14.5418626801541","Latitude":"35.8827522999571"},{"Id":"8538","Name":"Alfredo, Żejtun","Longitude":"14.5305754010005","Latitude":"35.8561023695488"},{"Id":"8539","Name":"Alfredo, Żejtun","Longitude":"14.5304863763609","Latitude":"35.8561741502238"},{"Id":"9427","Name":"Alka, Marsaxlokk","Longitude":"14.544614890728","Latitude":"35.8374029444319"},{"Id":"9157","Name":"Alwigi, Birkirkara","Longitude":"14.4588952360615","Latitude":"35.8970852183104"},{"Id":"9479","Name":"Alwigi, Birkirkara","Longitude":"14.457666653395","Latitude":"35.8968813251173"},{"Id":"9147","Name":"Ambaxxata, Ta' Qali","Longitude":"14.425863429942","Latitude":"35.8924599306264"},{"Id":"9432","Name":"Ambaxxata, Ta' Qali","Longitude":"14.4255032027505","Latitude":"35.8917098830591"},{"Id":"8890","Name":"Anard, Ta' Giorni","Longitude":"14.4795214736091","Latitude":"35.9132789028364"},{"Id":"8910","Name":"Anard, Ta' Giorni","Longitude":"14.4796440928686","Latitude":"35.9131712427926"},{"Id":"7830","Name":"Andar, Imqabba","Longitude":"14.4769840231597","Latitude":"35.8474690679618"},{"Id":"7842","Name":"Andar, Imqabba","Longitude":"14.4772599763694","Latitude":"35.8476055095598"},{"Id":"9412","Name":"Andar, Fontana","Longitude":"14.2371073358189","Latitude":"36.0406829522232"},{"Id":"8654","Name":"Andrija, Nadur","Longitude":"14.3019829399781","Latitude":"36.0391398234915"},{"Id":"9549","Name":"Andrija, Luqa","Longitude":"14.4884893316225","Latitude":"35.8578960702477"},{"Id":"7989","Name":"Andru, Pembroke","Longitude":"14.4727858737146","Latitude":"35.9245284661513"},{"Id":"9474","Name":"Anici, Qormi","Longitude":"14.471806766222","Latitude":"35.878380418807"},{"Id":"8563","Name":"Annunziata, Gudja","Longitude":"14.5039274301641","Latitude":"35.8491701466347"},{"Id":"8001","Name":"Anthony, Buġibba","Longitude":"14.4089200800681","Latitude":"35.9507918287731"},{"Id":"9708","Name":"Anthony, Buġibba","Longitude":"14.4091246301768","Latitude":"35.9501256616931"},{"Id":"7979","Name":"Antik, Sliema","Longitude":"14.4972241724442","Latitude":"35.9145624722213"},{"Id":"8088","Name":"Antik, Sliema","Longitude":"14.4962473817751","Latitude":"35.9147927931902"},{"Id":"7889","Name":"Antnin, Paola","Longitude":"14.5096452963324","Latitude":"35.8683707591449"},{"Id":"8549","Name":"Antnin, Marsaskala","Longitude":"14.5513154610703","Latitude":"35.8626641620356"},{"Id":"8645","Name":"Antnin, Imġarr","Longitude":"14.2969394952684","Latitude":"36.0270744190664"},{"Id":"8647","Name":"Antnin, Imġarr","Longitude":"14.2968166124148","Latitude":"36.027163855477"},{"Id":"8528","Name":"Antnin2, Marsaskala","Longitude":"14.5499098459394","Latitude":"35.8624785831931"},{"Id":"7694","Name":"Antoine, Imtarfa","Longitude":"14.3914268514463","Latitude":"35.8865922912303"},{"Id":"7707","Name":"Antoine, Imtarfa","Longitude":"14.392193363115","Latitude":"35.8863256939301"},{"Id":"7713","Name":"Anton, Attard","Longitude":"14.4515865020395","Latitude":"35.8932022455607"},{"Id":"8295","Name":"Anton, Attard","Longitude":"14.4502383014458","Latitude":"35.8926821711892"},{"Id":"8553","Name":"Anton, Żejtun","Longitude":"14.5280110027708","Latitude":"35.8496458341764"},{"Id":"9385","Name":"Anton, Żejtun","Longitude":"14.5282095874099","Latitude":"35.8497728390742"},{"Id":"8522","Name":"Anxjur, Marsaskala","Longitude":"14.5584942259825","Latitude":"35.8624022429915"},{"Id":"7699","Name":"Anzjani, Imtarfa","Longitude":"14.3986168352459","Latitude":"35.8939855238888"},{"Id":"9139","Name":"Aquilina, Balzan","Longitude":"14.451587831494","Latitude":"35.8962226024019"},{"Id":"9458","Name":"Aquilina, Munxar","Longitude":"14.23702988403","Latitude":"36.0314504424471"},{"Id":"9063","Name":"Arberry, Naxxar","Longitude":"14.4466330619562","Latitude":"35.9187487682141"},{"Id":"9077","Name":"Arberry, Naxxar","Longitude":"14.4461195123768","Latitude":"35.9192783403196"},{"Id":"9379","Name":"Arcisqof, Valletta","Longitude":"14.5109330495713","Latitude":"35.8985435977057"},{"Id":"9391","Name":"Arena, Għaxaq","Longitude":"14.5118406971357","Latitude":"35.8499508885406"},{"Id":"9392","Name":"Arena, Għaxaq","Longitude":"14.5117192696767","Latitude":"35.8498872827095"},{"Id":"7970","Name":"Argens, Imsida","Longitude":"14.4906031122446","Latitude":"35.8996762438684"},{"Id":"9402","Name":"Argens, Imsida","Longitude":"14.4908456799276","Latitude":"35.8998666081651"},{"Id":"9709","Name":"Aristarku, San Pawl il-Baħar","Longitude":"14.4082973512779","Latitude":"35.9480569518659"},{"Id":"9450","Name":"Arka, Għajnsielem","Longitude":"14.2880095806413","Latitude":"36.0253177663635"},{"Id":"7730","Name":"Arkata, Qormi","Longitude":"14.4787587438907","Latitude":"35.8791681313712"},{"Id":"7754","Name":"Arkata, Qormi","Longitude":"14.4788572651498","Latitude":"35.8793488790096"},{"Id":"9626","Name":"Armar, Qormi","Longitude":"14.4807980033385","Latitude":"35.8807367324543"},{"Id":"9631","Name":"Armar, Qormi","Longitude":"14.4808084343804","Latitude":"35.8808359536154"},{"Id":"7829","Name":"Armata, Kirkop","Longitude":"14.483055959775","Latitude":"35.8486493980586"},{"Id":"7843","Name":"Armata, Kirkop","Longitude":"14.4832203119466","Latitude":"35.8489205866646"},{"Id":"9368","Name":"Armonija, Siġġiewi","Longitude":"14.4358701753227","Latitude":"35.8578949495595"},{"Id":"7798","Name":"Artillerija, Kirkop","Longitude":"14.4840354099515","Latitude":"35.8393400145653"},{"Id":"7812","Name":"Artillerija, Kirkop","Longitude":"14.4833485635158","Latitude":"35.839391160084"},{"Id":"9703","Name":"Arznel, Qawra","Longitude":"14.4237763037557","Latitude":"35.9541368346517"},{"Id":"7871","Name":"Arznell, Marsaxlokk","Longitude":"14.5426904241753","Latitude":"35.8389554214669"},{"Id":"8006","Name":"Arznell, Qawra","Longitude":"14.423811074837","Latitude":"35.9539296365658"},{"Id":"9067","Name":"Arznu, Naxxar","Longitude":"14.4363168499541","Latitude":"35.9339647281314"},{"Id":"9073","Name":"Arznu, Naxxar","Longitude":"14.4370361358365","Latitude":"35.9341484215908"},{"Id":"8476","Name":"Ashby, Marsaskala","Longitude":"14.5693335227974","Latitude":"35.8590785909737"},{"Id":"9243","Name":"Ashby, Marsaskala","Longitude":"14.5694627222595","Latitude":"35.8597642757279"},{"Id":"7727","Name":"Atocia, Ħamrun","Longitude":"14.4891730464559","Latitude":"35.8842438040342"},{"Id":"7758","Name":"Atocia, Ħamrun","Longitude":"14.489237956012","Latitude":"35.8844875122079"},{"Id":"7791","Name":"Avjazzjoni, Luqa","Longitude":"14.4934195789012","Latitude":"35.8541482499456"},{"Id":"7820","Name":"Avjazzjoni, Luqa","Longitude":"14.4927421339884","Latitude":"35.8544429215856"},{"Id":"8980","Name":"Awrora, Mosta","Longitude":"14.4296951550698","Latitude":"35.9112764449902"},{"Id":"7874","Name":"Axtart, Marsaxlokk","Longitude":"14.5410386607243","Latitude":"35.8431325911587"},{"Id":"7789","Name":"Azzopardi, Luqa","Longitude":"14.4847341743764","Latitude":"35.8579882173085"},{"Id":"7846","Name":"Bacir, Marsa","Longitude":"14.4960314438445","Latitude":"35.8736789570652"},{"Id":"9324","Name":"Bahar, San Pawl il-Baħar","Longitude":"14.3957366544418","Latitude":"35.9478050395835"},{"Id":"9325","Name":"Bahar, San Pawl il-Baħar","Longitude":"14.3951175435461","Latitude":"35.9475675086011"},{"Id":"9598","Name":"Bahhara, Għajnsielem","Longitude":"14.2859434563186","Latitude":"36.0279741246282"},{"Id":"8382","Name":"Bahrija, Baħrija","Longitude":"14.3464975604419","Latitude":"35.8950025086305"},{"Id":"9240","Name":"Baija, Marsaskala","Longitude":"14.5649675700062","Latitude":"35.8554203671319"},{"Id":"8379","Name":"Bajdar, Baħrija","Longitude":"14.3566005593027","Latitude":"35.8939300683329"},{"Id":"8385","Name":"Bajdar, Baħrija","Longitude":"14.3570877815005","Latitude":"35.8939687412254"},{"Id":"9710","Name":"Bajdun, Attard","Longitude":"14.4346526693593","Latitude":"35.9014364426418"},{"Id":"9711","Name":"Bajdun, Attard","Longitude":"14.4346376243836","Latitude":"35.9004356008081"},{"Id":"8479","Name":"Bajja, Marsaskala","Longitude":"14.5654881384565","Latitude":"35.8554132347094"},{"Id":"7933","Name":"Bajjada, Żabbar","Longitude":"14.5358831128517","Latitude":"35.8765353303824"},{"Id":"8361","Name":"Bajjada, Siġġiewi","Longitude":"14.4228268054841","Latitude":"35.8344995121009"},{"Id":"8406","Name":"Bajjada, Siġġiewi","Longitude":"14.4234681829223","Latitude":"35.8346107832094"},{"Id":"9154","Name":"Balaguer, Balzan","Longitude":"14.4520251203974","Latitude":"35.9002998157019"},{"Id":"8116","Name":"Balal, San Ġwann","Longitude":"14.4752296087246","Latitude":"35.9086530672106"},{"Id":"8189","Name":"Balal, San Ġwann","Longitude":"14.476305586831","Latitude":"35.9085044932269"},{"Id":"7919","Name":"Balbi, Marsa","Longitude":"14.4939164820608","Latitude":"35.883993403356"},{"Id":"9562","Name":"Balbi, Marsa","Longitude":"14.4948876328352","Latitude":"35.8845925477539"},{"Id":"8788","Name":"Ballaqqi, Santu Pietru","Longitude":"14.2010854944969","Latitude":"36.0604449313993"},{"Id":"9289","Name":"Ballut, Imġarr","Longitude":"14.359097893818","Latitude":"35.9346231428058"},{"Id":"9290","Name":"Ballut, Imġarr","Longitude":"14.3583430462813","Latitude":"35.9333749208363"},{"Id":"7980","Name":"Balluta, San Ġiljan","Longitude":"14.493467436868","Latitude":"35.9144835712138"},{"Id":"8087","Name":"Balluta, San Ġiljan","Longitude":"14.4947721341421","Latitude":"35.9149759300377"},{"Id":"8885","Name":"Baltiku, Ta' Giorni","Longitude":"14.4811742542677","Latitude":"35.9164596722263"},{"Id":"8912","Name":"Baltiku, Ta' Giorni","Longitude":"14.4796427768302","Latitude":"35.9150645879497"},{"Id":"9138","Name":"Balzan, Balzan","Longitude":"14.4518051652128","Latitude":"35.8984505388975"},{"Id":"7691","Name":"Balzano, Rabat","Longitude":"14.3915623531425","Latitude":"35.8775680005937"},{"Id":"8067","Name":"Bandieri, San Pawl il-Baħar","Longitude":"14.4033358109434","Latitude":"35.9487536593535"},{"Id":"8155","Name":"Banjijiet, Għajn Tuffieħa","Longitude":"14.3575930385897","Latitude":"35.9274204347574"},{"Id":"8160","Name":"Banjijiet, Għajn Tuffieħa","Longitude":"14.3553752550551","Latitude":"35.9275167373108"},{"Id":"9273","Name":"Bankieri, Qormi","Longitude":"14.4750702252854","Latitude":"35.8857968622423"},{"Id":"9274","Name":"Bankieri, Qormi","Longitude":"14.4743114377567","Latitude":"35.8849370239546"},{"Id":"8353","Name":"Barbara, Kirkop","Longitude":"14.4776236805092","Latitude":"35.8411155282796"},{"Id":"8413","Name":"Barbara, Kirkop","Longitude":"14.477468484661","Latitude":"35.8411419017535"},{"Id":"8638","Name":"Barbra, Nadur","Longitude":"14.3003307236569","Latitude":"36.0401940432751"},{"Id":"8655","Name":"Barbra, Nadur","Longitude":"14.2997115082124","Latitude":"36.0399199580248"},{"Id":"8715","Name":"Barda, Marsalforn","Longitude":"14.2545271717309","Latitude":"36.0710038807496"},{"Id":"7662","Name":"Barka, Rabat","Longitude":"14.3954266747124","Latitude":"35.8778219271891"},{"Id":"7679","Name":"Barka, Rabat","Longitude":"14.395294907226","Latitude":"35.8776679924433"},{"Id":"8025","Name":"Barkazza, Mellieħa","Longitude":"14.3758615581359","Latitude":"35.954158682591"},{"Id":"9578","Name":"Barmil, Xewkija","Longitude":"14.2662048070175","Latitude":"36.033255348465"},{"Id":"9313","Name":"Barrakka, Valletta","Longitude":"14.514490577602","Latitude":"35.8966466413358"},{"Id":"7897","Name":"Barrani, Bir id-Deheb","Longitude":"14.5238341294924","Latitude":"35.8518112439829"},{"Id":"7916","Name":"Barrani, Bir id-Deheb","Longitude":"14.5228428979488","Latitude":"35.8527449828406"},{"Id":"7816","Name":"Barrieri, Kirkop","Longitude":"14.4839025263144","Latitude":"35.8444695855897"},{"Id":"8123","Name":"Bartilmew, Għargħur","Longitude":"14.4514658512735","Latitude":"35.9235313572217"},{"Id":"7950","Name":"Baruni, Żabbar","Longitude":"14.535800434219","Latitude":"35.8755161986986"},{"Id":"7993","Name":"Baruza, San Ġwann","Longitude":"14.476715822034","Latitude":"35.9067932483327"},{"Id":"8518","Name":"Basli, Marsaskala","Longitude":"14.5537105541652","Latitude":"35.8562626576341"},{"Id":"9639","Name":"Basli, Żejtun","Longitude":"14.5538773860048","Latitude":"35.856137052154"},{"Id":"7668","Name":"Baslija, Dingli","Longitude":"14.3869029122309","Latitude":"35.8626138520896"},{"Id":"7672","Name":"Baslija, Dingli","Longitude":"14.3875197449048","Latitude":"35.8630587816697"},{"Id":"7731","Name":"Bastjan, Qormi","Longitude":"14.4767808737266","Latitude":"35.8783841557794"},{"Id":"7753","Name":"Bastjan, Qormi","Longitude":"14.475883858459","Latitude":"35.8783351652103"},{"Id":"8040","Name":"Batterija, Marfa","Longitude":"14.3387501883084","Latitude":"35.9857586822218"},{"Id":"8045","Name":"Batterija, Marfa","Longitude":"14.3406174939602","Latitude":"35.986652505895"},{"Id":"8586","Name":"Batterija, Marfa","Longitude":"14.5644424510526","Latitude":"35.8704302180797"},{"Id":"9417","Name":"Battista, Xewkija","Longitude":"14.260668307533","Latitude":"36.0318239116556"},{"Id":"9625","Name":"Batu, Żebbuġ (Malta)","Longitude":"14.4365494901445","Latitude":"35.8761465342666"},{"Id":"8850","Name":"Bayer, Xagħra","Longitude":"14.267898977422","Latitude":"36.0492865204836"},{"Id":"8869","Name":"Bayer, Xagħra","Longitude":"14.2695157812404","Latitude":"36.0497291335908"},{"Id":"8452","Name":"Bazilju, Imqabba","Longitude":"14.4675766452637","Latitude":"35.8449934197269"},{"Id":"8456","Name":"Bazilju, Imqabba","Longitude":"14.4671224603643","Latitude":"35.8450184546754"},{"Id":"9055","Name":"Begonia, Santa Luċija","Longitude":"14.5068243652822","Latitude":"35.8642028175259"},{"Id":"7855","Name":"Beland, Żejtun","Longitude":"14.5195521143953","Latitude":"35.8566809050747"},{"Id":"7883","Name":"Beland, Żejtun","Longitude":"14.5196325219562","Latitude":"35.8562033753958"},{"Id":"8527","Name":"Bellavista, Marsaskala","Longitude":"14.5562775008477","Latitude":"35.8626735745539"},{"Id":"9520","Name":"Bellavista, Marsaskala","Longitude":"14.5570196345733","Latitude":"35.8626672970901"},{"Id":"7733","Name":"Bellic, Qormi","Longitude":"14.4708647378411","Latitude":"35.87677142361"},{"Id":"7884","Name":"Belt, Tarxien","Longitude":"14.51712010819","Latitude":"35.8595833418486"},{"Id":"8005","Name":"Ben, Buġibba","Longitude":"14.4219651917463","Latitude":"35.9576803770715"},{"Id":"9704","Name":"Ben, Buġibba","Longitude":"14.4233152183511","Latitude":"35.9580745539907"},{"Id":"7799","Name":"Benedittu, Safi","Longitude":"14.4835573940697","Latitude":"35.8379224381562"},{"Id":"7811","Name":"Benedittu, Kirkop","Longitude":"14.4832128074537","Latitude":"35.8381283264991"},{"Id":"9597","Name":"Benghazi, Għajnsielem","Longitude":"14.2886249074295","Latitude":"36.0272417597837"},{"Id":"8797","Name":"Berrini, San Ġorġ","Longitude":"14.2225532812934","Latitude":"36.0452956180064"},{"Id":"9593","Name":"Bert, Xewkija","Longitude":"14.2662013176268","Latitude":"36.0324349016017"},{"Id":"9600","Name":"Bert, Xewkija","Longitude":"14.2665011581311","Latitude":"36.0324187048032"},{"Id":"8562","Name":"Bettina, Gudja","Longitude":"14.5062888089651","Latitude":"35.8505412977651"},{"Id":"8570","Name":"Bettina, Gudja","Longitude":"14.506585631488","Latitude":"35.8508941434335"},{"Id":"8614","Name":"Bez, Żebbuġ","Longitude":"14.2367970585146","Latitude":"36.061326745712"},{"Id":"8624","Name":"Bez, Żebbuġ","Longitude":"14.2371429047951","Latitude":"36.0611576507048"},{"Id":"8963","Name":"Bezbizija, Mosta","Longitude":"14.4185150470821","Latitude":"35.9109433302145"},{"Id":"8966","Name":"Bezbizija, Mosta","Longitude":"14.4183032943831","Latitude":"35.9111045913598"},{"Id":"8769","Name":"Bezuza, Sannat","Longitude":"14.2448376904822","Latitude":"36.0251257978772"},{"Id":"8138","Name":"Bezzina, Mosta","Longitude":"14.4237964279071","Latitude":"35.9085885826504"},{"Id":"7940","Name":"Bianco, Marsaskala","Longitude":"14.5616219371886","Latitude":"35.8636398810812"},{"Id":"8666","Name":"Bicceria, Rabat (Victoria)","Longitude":"14.252181111627","Latitude":"36.0396239143711"},{"Id":"8629","Name":"Biccerija, Rabat (Victoria)","Longitude":"14.2530720904635","Latitude":"36.0393139205018"},{"Id":"8970","Name":"Bidnija, Bidnija","Longitude":"14.39902570054","Latitude":"35.926372766922"},{"Id":"8314","Name":"Bieb, Isla","Longitude":"14.5192254043416","Latitude":"35.8832678988496"},{"Id":"8318","Name":"Bieb, Isla","Longitude":"14.5193580216775","Latitude":"35.8833225257106"},{"Id":"9526","Name":"Biedja, Manikata","Longitude":"14.3550852587415","Latitude":"35.9400201839509"},{"Id":"8111","Name":"Bilbla, Kappara","Longitude":"14.4847584270394","Latitude":"35.9106868600719"},{"Id":"8192","Name":"Bilbla, Kappara","Longitude":"14.4849562165056","Latitude":"35.9109491715564"},{"Id":"8642","Name":"Biljun, Qala","Longitude":"14.3061349568325","Latitude":"36.0340339990127"},{"Id":"8650","Name":"Biljun, Qala","Longitude":"14.3064547824635","Latitude":"36.0342702571807"},{"Id":"8567","Name":"Bir, Gudja","Longitude":"14.4956963784374","Latitude":"35.8531299973714"},{"Id":"8568","Name":"Bir, Gudja","Longitude":"14.4951749649407","Latitude":"35.8532720647011"},{"Id":"8828","Name":"Bir, Nadur","Longitude":"14.2882745663069","Latitude":"36.0402763501933"},{"Id":"8837","Name":"Bir, Nadur","Longitude":"14.2882891549669","Latitude":"36.0398887630747"},{"Id":"8790","Name":"Birbura, Birbuba","Longitude":"14.2051558132925","Latitude":"36.0620136548985"},{"Id":"9612","Name":"Birgu Centre, Birgu","Longitude":"14.5219237757163","Latitude":"35.8877686457648"},{"Id":"9065","Name":"Birguma, Naxxar","Longitude":"14.4418407416435","Latitude":"35.9240640148046"},{"Id":"9075","Name":"Birguma, Naxxar","Longitude":"14.4414731234587","Latitude":"35.9243237669491"},{"Id":"9564","Name":"Birkirkara 1, Birkirkara","Longitude":"14.4651344914128","Latitude":"35.8953280045855"},{"Id":"9215","Name":"Birkirkara 2, Birkirkara","Longitude":"14.4651901959616","Latitude":"35.8952831727672"},{"Id":"9565","Name":"Birkirkara 3, Birkirkara","Longitude":"14.4653674195505","Latitude":"35.8952929778105"},{"Id":"7908","Name":"Birzebbugia, Birżebbuġa","Longitude":"14.5285013550606","Latitude":"35.8191823692108"},{"Id":"8420","Name":"Birzebbugia 2, Birżebbuġa","Longitude":"14.5289639245285","Latitude":"35.8233315962654"},{"Id":"8497","Name":"Birzebbugia 3, Birżebbuġa","Longitude":"14.5290633447646","Latitude":"35.82336805029"},{"Id":"9558","Name":"Bistra, Mosta","Longitude":"14.4156626605558","Latitude":"35.9145178226052"},{"Id":"9559","Name":"Bistra, Mosta","Longitude":"14.4156701630697","Latitude":"35.9150047190654"},{"Id":"9323","Name":"Bittija, Dingli","Longitude":"14.3793699091755","Latitude":"35.8599425063184"},{"Id":"9059","Name":"Bjad, Naxxar","Longitude":"14.441421391702","Latitude":"35.9111873115547"},{"Id":"9544","Name":"Blajta, Far","Longitude":"14.5211624749794","Latitude":"35.8154026528244"},{"Id":"7925","Name":"Blandun, Fgura","Longitude":"14.5141001633007","Latitude":"35.8734919362446"},{"Id":"7958","Name":"Blandun, Fgura","Longitude":"14.5135464630518","Latitude":"35.8734626472469"},{"Id":"9143","Name":"Blanzuni, Attard","Longitude":"14.4369788412578","Latitude":"35.89217896186"},{"Id":"8637","Name":"Blas, Nadur","Longitude":"14.2972800169315","Latitude":"36.0399688416904"},{"Id":"8656","Name":"Blas, Nadur","Longitude":"14.2982797499788","Latitude":"36.0398935557859"},{"Id":"7725","Name":"Blata L-Bajda 1, Ħamrun","Longitude":"14.4968418134023","Latitude":"35.8874227596796"},{"Id":"8280","Name":"Blata L-Bajda 3, Ħamrun","Longitude":"14.4961369696548","Latitude":"35.8867526205936"},{"Id":"7918","Name":"Blata L-Bajda 4, Ħamrun","Longitude":"14.4973331738436","Latitude":"35.8868117287545"},{"Id":"7963","Name":"Blata L-Bajda 5, Ħamrun","Longitude":"14.4965161140855","Latitude":"35.8863665222907"},{"Id":"8430","Name":"Blu, Żurrieq","Longitude":"14.4752323297566","Latitude":"35.8343250260824"},{"Id":"9517","Name":"Blu, Żurrieq","Longitude":"14.4753976945435","Latitude":"35.8344339409074"},{"Id":"8336","Name":"Bocci, Xgħajra","Longitude":"14.5411365884264","Latitude":"35.8857067852787"},{"Id":"8345","Name":"Bocci, Xgħajra","Longitude":"14.5420503137452","Latitude":"35.8847996538744"},{"Id":"9131","Name":"Boffa, Furjana","Longitude":"14.5075481169944","Latitude":"35.8922275836535"},{"Id":"9561","Name":"Boffa, Furjana","Longitude":"14.5065641868096","Latitude":"35.8918719212115"},{"Id":"9141","Name":"Bologna, Attard","Longitude":"14.4447926106814","Latitude":"35.8934415097287"},{"Id":"9152","Name":"Bologna, Attard","Longitude":"14.4446772776831","Latitude":"35.8940901263847"},{"Id":"8103","Name":"Bombi 1, Furjana","Longitude":"14.5013330268768","Latitude":"35.8903175953594"},{"Id":"7726","Name":"Bombi 2, Furjana","Longitude":"14.5009589217502","Latitude":"35.8899013054453"},{"Id":"9532","Name":"Bombi 2A, Furjana","Longitude":"14.5007932940444","Latitude":"35.8898104571262"},{"Id":"9533","Name":"Bombi 3, Furjana","Longitude":"14.5007836859088","Latitude":"35.8895760011318"},{"Id":"8279","Name":"Bombi 3A, Furjana","Longitude":"14.5004413531253","Latitude":"35.8893942577052"},{"Id":"9534","Name":"Bombi 4, Furjana","Longitude":"14.5005377846523","Latitude":"35.889917586882"},{"Id":"7965","Name":"Bombi 4A, Furjana","Longitude":"14.5001051711258","Latitude":"35.8899969310864"},{"Id":"9038","Name":"Bonavia, Żabbar","Longitude":"14.5323548158245","Latitude":"35.8755839788008"},{"Id":"8308","Name":"Boni east side, Paola","Longitude":"14.5090752462989","Latitude":"35.8745894938126"},{"Id":"8309","Name":"Boni west side, Paola","Longitude":"14.5088648859151","Latitude":"35.8745706018884"},{"Id":"7715","Name":"Bontadini, Birkirkara","Longitude":"14.4619385406584","Latitude":"35.8927531908073"},{"Id":"8292","Name":"Bontadini, Birkirkara","Longitude":"14.4622624184977","Latitude":"35.8923759701734"},{"Id":"8668","Name":"Borg, Rabat (Victoria)","Longitude":"14.2465097514576","Latitude":"36.0418423178669"},{"Id":"8914","Name":"Borg, San Ġiljan","Longitude":"14.4896403179948","Latitude":"35.9184614344119"},{"Id":"8326","Name":"Bormla, Bormla","Longitude":"14.5206359285658","Latitude":"35.8826874950045"},{"Id":"8330","Name":"Bormla, Bormla","Longitude":"14.5206509730167","Latitude":"35.8820293854635"},{"Id":"8498","Name":"Borok, Birżebbuġa","Longitude":"14.5269254338183","Latitude":"35.8198523861705"},{"Id":"7974","Name":"Bouverie, Sliema","Longitude":"14.5002688883484","Latitude":"35.9080205726623"},{"Id":"8093","Name":"Bouverie, Sliema","Longitude":"14.5002698520702","Latitude":"35.9078673051015"},{"Id":"8009","Name":"Boxxla, Qawra","Longitude":"14.4203442740215","Latitude":"35.9473133231407"},{"Id":"9737","Name":"Boxxla, Qawra","Longitude":"14.4205955990227","Latitude":"35.9478194258252"},{"Id":"8028","Name":"Bragg, Mellieħa","Longitude":"14.3658648033476","Latitude":"35.9562700800874"},{"Id":"8793","Name":"Brajtu, Għarb","Longitude":"14.2111974232941","Latitude":"36.057446598132"},{"Id":"8260","Name":"Brared, Birkirkara","Longitude":"14.4528474414192","Latitude":"35.9015748160239"},{"Id":"8265","Name":"Brared, Birkirkara","Longitude":"14.4529018542317","Latitude":"35.9017193193317"},{"Id":"9116","Name":"Briegex, Fleur-de-Lys","Longitude":"14.4707547328707","Latitude":"35.8933062753365"},{"Id":"9477","Name":"Briegex, Fleur-de-Lys","Longitude":"14.4703886726419","Latitude":"35.8933677735535"},{"Id":"8888","Name":"Briffa, San Ġwann","Longitude":"14.4751812990207","Latitude":"35.9109338941906"},{"Id":"9263","Name":"Briffa, San Ġwann","Longitude":"14.4762306271063","Latitude":"35.9114704174912"},{"Id":"7767","Name":"Brija, Siġġiewi","Longitude":"14.4402517122635","Latitude":"35.8569326956485"},{"Id":"7888","Name":"Brittanja, Tarxien","Longitude":"14.51107223796","Latitude":"35.8650857200426"},{"Id":"9050","Name":"Bruka, Santa Luċija","Longitude":"14.5014775723083","Latitude":"35.8601776267513"},{"Id":"8436","Name":"Bubaqra, Żurrieq","Longitude":"14.4796080238481","Latitude":"35.8255082922607"},{"Id":"8468","Name":"Bubaqra, Żurrieq","Longitude":"14.4798381529162","Latitude":"35.8258699319461"},{"Id":"8016","Name":"Bugeja, San Pawl il-Baħar","Longitude":"14.4011887618471","Latitude":"35.9482200464545"},{"Id":"9004","Name":"Bugeja, Dingli","Longitude":"14.3776881149739","Latitude":"35.861141949055"},{"Id":"9193","Name":"Bugibba Bay 1, Buġibba","Longitude":"14.4195284600409","Latitude":"35.954251602894"},{"Id":"9194","Name":"Bugibba Bay 2, Buġibba","Longitude":"14.4194054319871","Latitude":"35.954395261684"},{"Id":"9195","Name":"Bugibba Bay 3, Buġibba","Longitude":"14.4193151409391","Latitude":"35.9546112056805"},{"Id":"9196","Name":"Bugibba Bay 4, Buġibba","Longitude":"14.4193260314418","Latitude":"35.9546383059746"},{"Id":"9197","Name":"Bugibba Bay 5, Buġibba","Longitude":"14.4193702533209","Latitude":"35.954656551659"},{"Id":"9366","Name":"Bugibba Bay 6, Buġibba","Longitude":"14.4192814796361","Latitude":"35.9546651380145"},{"Id":"9079","Name":"Bugibba bay 8, Buġibba","Longitude":"14.4200255271093","Latitude":"35.9545154661397"},{"Id":"7854","Name":"Bulebel, Bulebel","Longitude":"14.5162247645541","Latitude":"35.8611124690301"},{"Id":"7885","Name":"Bulebel, Tarxien","Longitude":"14.5159262169182","Latitude":"35.8610301220705"},{"Id":"9589","Name":"Bullara, Xagħra","Longitude":"14.2619747933582","Latitude":"36.0500165266406"},{"Id":"9316","Name":"Bumunqar, Żabbar","Longitude":"14.5394119625449","Latitude":"35.8850600465611"},{"Id":"9318","Name":"Bumunqar, Żabbar","Longitude":"14.5393904311111","Latitude":"35.8849517716903"},{"Id":"7907","Name":"Buni, Birżebbuġa","Longitude":"14.5283547637832","Latitude":"35.8252496392741"},{"Id":"7909","Name":"Buni, Birżebbuġa","Longitude":"14.5281235614148","Latitude":"35.8250323451686"},{"Id":"7702","Name":"Buqana, Imtarfa","Longitude":"14.4005124584654","Latitude":"35.892399178041"},{"Id":"9040","Name":"Burbur, Żabbar","Longitude":"14.540531341481","Latitude":"35.8792399783319"},{"Id":"9043","Name":"Burbur, Żabbar","Longitude":"14.5408685727384","Latitude":"35.8803141757992"},{"Id":"9384","Name":"Burglat, Gudja","Longitude":"14.5014442909419","Latitude":"35.8513417565143"},{"Id":"9685","Name":"Burma, Pembroke","Longitude":"14.4824010905309","Latitude":"35.9271939431616"},{"Id":"8227","Name":"Burmarrad, Burmarrad","Longitude":"14.4139563516373","Latitude":"35.9354805106025"},{"Id":"8232","Name":"Burmarrad, Burmarrad","Longitude":"14.4132612383719","Latitude":"35.9365319744506"},{"Id":"9014","Name":"Buskett, Buskett","Longitude":"14.393384171292","Latitude":"35.8551093787019"},{"Id":"8115","Name":"Busuttil, San Ġwann","Longitude":"14.4733421195173","Latitude":"35.9091767454409"},{"Id":"8188","Name":"Busuttil, San Ġwann","Longitude":"14.4741070906623","Latitude":"35.9091350182996"},{"Id":"8551","Name":"Butigieg, Żejtun","Longitude":"14.5334992825562","Latitude":"35.8504246168943"},{"Id":"8525","Name":"Butjar, Marsaskala","Longitude":"14.5575033651225","Latitude":"35.8653107863769"},{"Id":"8641","Name":"Buttigieg, Qala","Longitude":"14.3094814482424","Latitude":"36.0346844155171"},{"Id":"8651","Name":"Buttigieg, Qala","Longitude":"14.3098012079537","Latitude":"36.0349296801069"},{"Id":"7938","Name":"Buzbiez, Marsaskala","Longitude":"14.5618800805314","Latitude":"35.8670488947208"},{"Id":"9301","Name":"Buzjett, Naxxar","Longitude":"14.4475683518711","Latitude":"35.9165441707902"},{"Id":"7659","Name":"Buzugrilla 1, Rabat","Longitude":"14.3915832453966","Latitude":"35.8835276582593"},{"Id":"7683","Name":"Buzugrilla 2, Rabat","Longitude":"14.3908836441722","Latitude":"35.8837404954901"},{"Id":"8303","Name":"Buzugrilla 3, Rabat","Longitude":"14.391368408395","Latitude":"35.8840945752241"},{"Id":"8448","Name":"Byzantini, Qrendi","Longitude":"14.4603749539213","Latitude":"35.8324830683113"},{"Id":"8460","Name":"Byzantini, Qrendi","Longitude":"14.4604411999067","Latitude":"35.8325104139447"},{"Id":"8494","Name":"Cachia, Qajjenza","Longitude":"14.533140108158","Latitude":"35.8323459655256"},{"Id":"8508","Name":"Cachia, Qajjenza","Longitude":"14.5350320407592","Latitude":"35.8325787024043"},{"Id":"7995","Name":"Caghaq, Baħar iċ-Ċagħaq","Longitude":"14.4557600007193","Latitude":"35.9390582819335"},{"Id":"8075","Name":"Caghaq, Baħar iċ-Ċagħaq","Longitude":"14.4566728456971","Latitude":"35.93851244674"},{"Id":"8803","Name":"Calleja, Kerċem","Longitude":"14.2251036506571","Latitude":"36.0410657704799"},{"Id":"8438","Name":"Callus, Żurrieq","Longitude":"14.4752705855469","Latitude":"35.8268328313871"},{"Id":"8466","Name":"Callus, Żurrieq","Longitude":"14.4746615750288","Latitude":"35.8268482032216"},{"Id":"8848","Name":"Calypso, Xagħra","Longitude":"14.2690307807162","Latitude":"36.0529537762962"},{"Id":"8871","Name":"Calypso, Xagħra","Longitude":"14.2689310303753","Latitude":"36.0529351367622"},{"Id":"8225","Name":"Campra, Mosta","Longitude":"14.4162536253425","Latitude":"35.9291174631321"},{"Id":"8234","Name":"Campra, Mosta","Longitude":"14.4164809095794","Latitude":"35.9298668880668"},{"Id":"8672","Name":"Canga, Rabat (Victoria)","Longitude":"14.2505441430178","Latitude":"36.0343124917685"},{"Id":"8698","Name":"Canga, Xewkija","Longitude":"14.2497908485328","Latitude":"36.0341545149675"},{"Id":"7821","Name":"Caraffa, Luqa","Longitude":"14.4882427747874","Latitude":"35.8566237579643"},{"Id":"8830","Name":"Caraffa, Nadur","Longitude":"14.2916713699116","Latitude":"36.0452370505134"},{"Id":"8835","Name":"Caraffa, Nadur","Longitude":"14.2916555480848","Latitude":"36.0445247196799"},{"Id":"9181","Name":"Caraffa, Luqa","Longitude":"14.4882632443009","Latitude":"35.8568853104797"},{"Id":"8254","Name":"Caramelo, Swatar","Longitude":"14.4717220448639","Latitude":"35.8961415523601"},{"Id":"8272","Name":"Caramelo, Swatar","Longitude":"14.4731198475601","Latitude":"35.8958952453708"},{"Id":"8120","Name":"Caravaggio, Għargħur","Longitude":"14.4551864258692","Latitude":"35.9240892541888"},{"Id":"7689","Name":"Carlo, Rabat","Longitude":"14.3982828156763","Latitude":"35.8751585243159"},{"Id":"7708","Name":"Carmel, Attard","Longitude":"14.4324801557477","Latitude":"35.8875416115162"},{"Id":"8299","Name":"Carmel, Attard","Longitude":"14.4322165737841","Latitude":"35.887215790719"},{"Id":"8373","Name":"Carruta, Dingli","Longitude":"14.3821421321569","Latitude":"35.8595150112317"},{"Id":"8392","Name":"Carruta, Dingli","Longitude":"14.3822753134117","Latitude":"35.8594796320919"},{"Id":"7687","Name":"Caruana, Rabat","Longitude":"14.4013557603754","Latitude":"35.8731002027507"},{"Id":"9113","Name":"Casolani, Birkirkara","Longitude":"14.4706996245511","Latitude":"35.8982558053764"},{"Id":"9114","Name":"Casolani, Birkirkara","Longitude":"14.4705199589515","Latitude":"35.8969476967255"},{"Id":"9686","Name":"Cassino, Pembroke","Longitude":"14.4799508453046","Latitude":"35.9255695013201"},{"Id":"8569","Name":"Castagna, Gudja","Longitude":"14.5054264952796","Latitude":"35.8485181532227"},{"Id":"7696","Name":"Castelletti, Imtarfa","Longitude":"14.3943058148941","Latitude":"35.8882657796386"},{"Id":"7706","Name":"Castelletti, Imtarfa","Longitude":"14.3936455337829","Latitude":"35.8876764110688"},{"Id":"8700","Name":"Cawla, Rabat (Victoria)","Longitude":"14.2417908617221","Latitude":"36.0373137649869"},{"Id":"8765","Name":"Cawla, Ċawla","Longitude":"14.2419218972356","Latitude":"36.0375399845931"},{"Id":"8770","Name":"Cenc, Sannat","Longitude":"14.2499339838453","Latitude":"36.0213982484892"},{"Id":"8598","Name":"Ceppuna, Marsa","Longitude":"14.4880046946542","Latitude":"35.872977829009"},{"Id":"9173","Name":"Ceppuna, Marsa","Longitude":"14.4882037362976","Latitude":"35.8730327732995"},{"Id":"8341","Name":"Cern, Xgħajra","Longitude":"14.5498739404253","Latitude":"35.8864521129258"},{"Id":"9086","Name":"Cerna, Buġibba","Longitude":"14.4150297952451","Latitude":"35.9492800480921"},{"Id":"7975","Name":"Chalet, Sliema","Longitude":"14.5066887335196","Latitude":"35.9128706639304"},{"Id":"8092","Name":"Chalet, Sliema","Longitude":"14.5068773647016","Latitude":"35.9128353748683"},{"Id":"8683","Name":"Chambray, Għajnsielem","Longitude":"14.2899090343787","Latitude":"36.0239045495501"},{"Id":"8686","Name":"Chambray, Għajnsielem","Longitude":"14.290198468576","Latitude":"36.0238070904077"},{"Id":"7711","Name":"Chetcuti, Attard","Longitude":"14.4430348152107","Latitude":"35.8897097739522"},{"Id":"8297","Name":"Chetcuti, Attard","Longitude":"14.4428028416893","Latitude":"35.8896095222629"},{"Id":"7835","Name":"Chircop, Qrendi","Longitude":"14.460620262906","Latitude":"35.8338636279654"},{"Id":"7837","Name":"Chircop, Qrendi","Longitude":"14.460542028585","Latitude":"35.8339714696305"},{"Id":"8842","Name":"Ciangura Lawrenz, San Lawrenz","Longitude":"14.2033471077875","Latitude":"36.0552850363978"},{"Id":"9436","Name":"Ciappara, Qormi","Longitude":"14.4758520210946","Latitude":"35.8798046354426"},{"Id":"9599","Name":"Cief, Għajnsielem","Longitude":"14.2827792599104","Latitude":"36.0280814607312"},{"Id":"7930","Name":"Cikas, Żabbar","Longitude":"14.5298722048309","Latitude":"35.8720309854169"},{"Id":"7953","Name":"Cikas, Żabbar","Longitude":"14.5293195212533","Latitude":"35.8718304683374"},{"Id":"9527","Name":"Ciklamini, San Ġwann","Longitude":"14.4768016709792","Latitude":"35.9089033581115"},{"Id":"8679","Name":"Cilja, Għajnsielem","Longitude":"14.2758648975138","Latitude":"36.0292570226294"},{"Id":"8690","Name":"Cilja, Għajnsielem","Longitude":"14.2769323396418","Latitude":"36.0290470876963"},{"Id":"8261","Name":"Cimiterju, Lija","Longitude":"14.4498040138254","Latitude":"35.9042025870636"},{"Id":"8264","Name":"Cimiterju, Lija","Longitude":"14.4506711729894","Latitude":"35.9038008388737"},{"Id":"8285","Name":"Cini, Santa Venera","Longitude":"14.4808832272829","Latitude":"35.888049077926"},{"Id":"7792","Name":"Cintra, Luqa","Longitude":"14.4930713347903","Latitude":"35.8514419650311"},{"Id":"7819","Name":"Cintra, Luqa","Longitude":"14.4933887016809","Latitude":"35.8520383632049"},{"Id":"7866","Name":"Cippi, Marsaxlokk","Longitude":"14.5423664527786","Latitude":"35.8433089606859"},{"Id":"7873","Name":"Cippi, Marsaxlokk","Longitude":"14.5427385425741","Latitude":"35.8421473015171"},{"Id":"9347","Name":"Cirkewwa 1, Ċirkewwa","Longitude":"14.328752008925","Latitude":"35.9874522188595"},{"Id":"4288","Name":"Cirkewwa Alight, Ċirkewwa","Longitude":"14.3283428722862","Latitude":"35.98729666092"},{"Id":"8564","Name":"Ciru, Gudja","Longitude":"14.502881317102","Latitude":"35.848219136576"},{"Id":"8397","Name":"Cliffs, Dingli","Longitude":"14.3897416758763","Latitude":"35.849176434394"},{"Id":"8398","Name":"Cliffs, Dingli","Longitude":"14.3888987605282","Latitude":"35.8493434546797"},{"Id":"9571","Name":"Cnus, Far","Longitude":"14.5024320758988","Latitude":"35.8190772852295"},{"Id":"9574","Name":"Cnus, Far","Longitude":"14.502613409517","Latitude":"35.8184018275326"},{"Id":"9309","Name":"Colelini, Bormla","Longitude":"14.5192698255015","Latitude":"35.8777502700568"},{"Id":"7721","Name":"Colosso, Santa Venera","Longitude":"14.4786958224202","Latitude":"35.8887698994218"},{"Id":"8286","Name":"Colosso, Santa Venera","Longitude":"14.4783192418066","Latitude":"35.8887502323614"},{"Id":"8557","Name":"Combini, Għaxaq","Longitude":"14.5141796080436","Latitude":"35.8477694629692"},{"Id":"8576","Name":"Combini, Għaxaq","Longitude":"14.5136985935353","Latitude":"35.8485609314134"},{"Id":"7923","Name":"Consigli, Fgura","Longitude":"14.5095387576367","Latitude":"35.8730766941683"},{"Id":"7960","Name":"Consigli, Fgura","Longitude":"14.509506470593","Latitude":"35.872923289817"},{"Id":"8682","Name":"Cordina, Għajnsielem","Longitude":"14.2867204173531","Latitude":"36.0255084505018"},{"Id":"8687","Name":"Cordina, Għajnsielem","Longitude":"14.2871044935856","Latitude":"36.0247624321667"},{"Id":"7815","Name":"Cremona, Kirkop","Longitude":"14.482537528471","Latitude":"35.8432194988"},{"Id":"8583","Name":"Crieki, Żejtun","Longitude":"14.5406616978481","Latitude":"35.8566552683073"},{"Id":"8332","Name":"Cumnija, Kalkara","Longitude":"14.5333799811517","Latitude":"35.889670998688"},{"Id":"8346","Name":"Cumnija, Kalkara","Longitude":"14.5323060026771","Latitude":"35.8895405972082"},{"Id":"9424","Name":"D Amato, Xewkija","Longitude":"14.2634166420099","Latitude":"36.0322916088337"},{"Id":"9425","Name":"D Amato, Xewkija","Longitude":"14.2636710795689","Latitude":"36.0323833281711"},{"Id":"9018","Name":"Dahar, Rabat","Longitude":"14.395322620379","Latitude":"35.8667317508321"},{"Id":"8818","Name":"Dahla, Għejun","Longitude":"14.2707032625293","Latitude":"36.0485733451858"},{"Id":"7900","Name":"Dalam, Birżebbuġa","Longitude":"14.5286874673501","Latitude":"35.8363858302397"},{"Id":"7913","Name":"Dalam, Birżebbuġa","Longitude":"14.5281843616138","Latitude":"35.8372043205852"},{"Id":"8132","Name":"Daqqaq, Mosta","Longitude":"14.4331735348951","Latitude":"35.905288297061"},{"Id":"8178","Name":"Daqqaq, Mosta","Longitude":"14.4348130346922","Latitude":"35.9053771682547"},{"Id":"9676","Name":"Daqquqa, Farruġ","Longitude":"14.4794778230773","Latitude":"35.867468459115"},{"Id":"7704","Name":"David, Imtarfa","Longitude":"14.3979874165749","Latitude":"35.8907726925674"},{"Id":"8561","Name":"Dawret, Għaxaq","Longitude":"14.5079158673262","Latitude":"35.8506832129382"},{"Id":"8571","Name":"Dawret, Għaxaq","Longitude":"14.5080262187701","Latitude":"35.8507467772493"},{"Id":"8783","Name":"Dbiegi, Wilġa","Longitude":"14.2098217762107","Latitude":"36.0551115150194"},{"Id":"9430","Name":"Dbiegi, San Lawrenz","Longitude":"14.2096984819147","Latitude":"36.055227904996"},{"Id":"9453","Name":"Debba, San Lawrenz","Longitude":"14.2002213578455","Latitude":"36.0503777723015"},{"Id":"9454","Name":"Debba, San Lawrenz","Longitude":"14.2005364598851","Latitude":"36.0510560436852"},{"Id":"8351","Name":"Decelis, Kalkara","Longitude":"14.5261589218725","Latitude":"35.8873075796084"},{"Id":"7862","Name":"Deheb 1, Bir id-Deheb","Longitude":"14.5253327568861","Latitude":"35.8493557860339"},{"Id":"7863","Name":"Deheb 2, Bir id-Deheb","Longitude":"14.5265067794668","Latitude":"35.8474670422638"},{"Id":"7878","Name":"Deheb 3, Bir id-Deheb","Longitude":"14.5263297609167","Latitude":"35.8474392963846"},{"Id":"7879","Name":"Deheb 4, Bir id-Deheb","Longitude":"14.5249433394979","Latitude":"35.8496607935768"},{"Id":"9210","Name":"Deheb 5, Bir id-Deheb","Longitude":"14.5241738678875","Latitude":"35.848702045312"},{"Id":"9350","Name":"Deheb 6, Bir id-Deheb","Longitude":"14.5246268208052","Latitude":"35.8488841595531"},{"Id":"9029","Name":"Dejqa, Bormla","Longitude":"14.5245399093253","Latitude":"35.881981729873"},{"Id":"9357","Name":"Dejqa, Bormla","Longitude":"14.5246936079271","Latitude":"35.8822167547775"},{"Id":"9414","Name":"Dejqa, Xewkija","Longitude":"14.2555712949287","Latitude":"36.0308908105253"},{"Id":"9603","Name":"Dejqa, Xewkija","Longitude":"14.2554495478467","Latitude":"36.0308539919931"},{"Id":"8964","Name":"Delia, Mosta","Longitude":"14.4167783594802","Latitude":"35.9104931268587"},{"Id":"8965","Name":"Delia, Mosta","Longitude":"14.417296186236","Latitude":"35.9109103737315"},{"Id":"7868","Name":"Delimara, Marsaxlokk","Longitude":"14.5524918034294","Latitude":"35.834664589997"},{"Id":"8559","Name":"Demicoli, Għaxaq","Longitude":"14.5145925275579","Latitude":"35.8508816752967"},{"Id":"8573","Name":"Demicoli, Għaxaq","Longitude":"14.5154999512237","Latitude":"35.8509935303797"},{"Id":"8612","Name":"Demnija, Rabat (Victoria)","Longitude":"14.2413883224082","Latitude":"36.0468768080375"},{"Id":"8626","Name":"Demnija, Rabat (Victoria)","Longitude":"14.241603132107","Latitude":"36.0464724637766"},{"Id":"9398","Name":"Dennis, Marsaskala","Longitude":"14.5650227676703","Latitude":"35.8635620812807"},{"Id":"9010","Name":"Depiro, Dingli","Longitude":"14.3726135687792","Latitude":"35.8585640335856"},{"Id":"8421","Name":"Despott, Birżebbuġa","Longitude":"14.5297876410432","Latitude":"35.8206930996097"},{"Id":"9473","Name":"Despott, Birżebbuġa","Longitude":"14.52957614081","Latitude":"35.820890626641"},{"Id":"7857","Name":"Diacono, Żejtun","Longitude":"14.5310190046503","Latitude":"35.8541205671925"},{"Id":"7920","Name":"Dicembru, Marsa","Longitude":"14.4920844921459","Latitude":"35.8828767015826"},{"Id":"7962","Name":"Dicembru, Marsa","Longitude":"14.4919610731074","Latitude":"35.8831196118609"},{"Id":"8636","Name":"Dicembru, Nadur","Longitude":"14.2967079028273","Latitude":"36.03814432099"},{"Id":"9451","Name":"Dicembru, Nadur","Longitude":"14.2967642839766","Latitude":"36.0380454792483"},{"Id":"7724","Name":"Diego, Ħamrun","Longitude":"14.4915770387912","Latitude":"35.8860031088238"},{"Id":"8281","Name":"Diego, Ħamrun","Longitude":"14.4911795207134","Latitude":"35.8857940574102"},{"Id":"8198","Name":"Dimech, Sliema","Longitude":"14.5007972821752","Latitude":"35.9121160216876"},{"Id":"8779","Name":"Dimech, Fontana","Longitude":"14.237994215166","Latitude":"36.035044801705"},{"Id":"9409","Name":"Dimech, Fontana","Longitude":"14.2381052082311","Latitude":"36.0350455070216"},{"Id":"7670","Name":"Dingli, Dingli","Longitude":"14.3828531396428","Latitude":"35.8606636961615"},{"Id":"8391","Name":"Dingli, Dingli","Longitude":"14.3830076346391","Latitude":"35.860736617566"},{"Id":"9715","Name":"Dis, Madliena","Longitude":"14.4645420221657","Latitude":"35.9273500321785"},{"Id":"9582","Name":"Dminka, Rabat (Victoria)","Longitude":"14.2392829522433","Latitude":"36.0372347703631"},{"Id":"9178","Name":"Dokkiena, Luqa","Longitude":"14.4899255997018","Latitude":"35.861905298896"},{"Id":"9444","Name":"Dome, Xewkija","Longitude":"14.2608547990811","Latitude":"36.0320594686009"},{"Id":"9027","Name":"Dominka, Bormla","Longitude":"14.5306494238004","Latitude":"35.8792378371321"},{"Id":"9036","Name":"Dominka, Bormla","Longitude":"14.530434788626","Latitude":"35.879940248617"},{"Id":"8881","Name":"Dragonara, Paceville","Longitude":"14.4913483364034","Latitude":"35.925212613135"},{"Id":"9001","Name":"Dumnikani, Rabat","Longitude":"14.3990048628875","Latitude":"35.8763612635613"},{"Id":"9020","Name":"Dumnikani, Rabat","Longitude":"14.3988495735424","Latitude":"35.8763875344433"},{"Id":"9551","Name":"Dura, Mosta","Longitude":"14.4295921090256","Latitude":"35.9179116816044"},{"Id":"9554","Name":"Dura, Mosta","Longitude":"14.4295879014777","Latitude":"35.9184976968567"},{"Id":"9046","Name":"Duttrina, Tarxien","Longitude":"14.5134013688092","Latitude":"35.8645812616623"},{"Id":"9286","Name":"Duttrina, Tarxien","Longitude":"14.5137110581951","Latitude":"35.8646546439413"},{"Id":"8144","Name":"Dwejra, Mosta","Longitude":"14.4039971293255","Latitude":"35.9079239393755"},{"Id":"8171","Name":"Dwejra, Mosta","Longitude":"14.4044301344833","Latitude":"35.9078178966111"},{"Id":"8840","Name":"Dwejra, San Lawrenz","Longitude":"14.1903025270856","Latitude":"36.0519159654233"},{"Id":"7877","Name":"Dwieli, Bir id-Deheb","Longitude":"14.5354490568898","Latitude":"35.8465101766439"},{"Id":"8311","Name":"Dwieli, Paola","Longitude":"14.5119975582483","Latitude":"35.8767562316175"},{"Id":"8325","Name":"Dwieli, Bormla","Longitude":"14.5115341740433","Latitude":"35.8764478033323"},{"Id":"9003","Name":"Ebejer, Dingli","Longitude":"14.3801493677981","Latitude":"35.8608300969708"},{"Id":"7732","Name":"Edwardu, Qormi","Longitude":"14.4748458567977","Latitude":"35.8761487574377"},{"Id":"9364","Name":"Egbieh, Naxxar","Longitude":"14.4419484758387","Latitude":"35.9134617796047"},{"Id":"9061","Name":"Eghnieq, Naxxar","Longitude":"14.4422911553215","Latitude":"35.9135895949134"},{"Id":"8847","Name":"Eghzien, Pergla","Longitude":"14.2685388907998","Latitude":"36.0557185758365"},{"Id":"8872","Name":"Eghzien, Pergla","Longitude":"14.2682766922043","Latitude":"36.0552571784256"},{"Id":"8604","Name":"Egrett, Farruġ","Longitude":"14.4801481131757","Latitude":"35.8649017934107"},{"Id":"8675","Name":"Elizabetta, Xewkija","Longitude":"14.2590261181011","Latitude":"36.0353208666194"},{"Id":"9405","Name":"Elizabetta, Ta' Xbiex","Longitude":"14.4974660497027","Latitude":"35.9008501884378"},{"Id":"9406","Name":"Elizabetta, Ta' Xbiex","Longitude":"14.4978885549618","Latitude":"35.9006265561028"},{"Id":"9403","Name":"Embassy, Ta' Xbiex","Longitude":"14.4972305133765","Latitude":"35.8977927832062"},{"Id":"9404","Name":"Embassy, Ta' Xbiex","Longitude":"14.4971524354978","Latitude":"35.8978736002101"},{"Id":"8131","Name":"Emigranti, Naxxar","Longitude":"14.4394484759165","Latitude":"35.9064988418416"},{"Id":"8179","Name":"Emigranti, Naxxar","Longitude":"14.4390939862715","Latitude":"35.9064791546429"},{"Id":"8889","Name":"Emvin, San Ġwann","Longitude":"14.4734350494326","Latitude":"35.9102049724593"},{"Id":"9264","Name":"Emvin, San Ġwann","Longitude":"14.4737208621979","Latitude":"35.9105578478801"},{"Id":"7971","Name":"Enrico, Ta' Xbiex","Longitude":"14.4929616641735","Latitude":"35.901687773098"},{"Id":"8349","Name":"Esplora, Kalkara","Longitude":"14.5248876686858","Latitude":"35.8923875885888"},{"Id":"8029","Name":"Etna, Mellieħa","Longitude":"14.3638443693963","Latitude":"35.9565478941384"},{"Id":"9471","Name":"Etna, Mellieħa","Longitude":"14.3654301133455","Latitude":"35.9565472733947"},{"Id":"7994","Name":"Evangelista, Baħar iċ-Ċagħaq","Longitude":"14.4602975841079","Latitude":"35.9353371650824"},{"Id":"9687","Name":"Evangelista, Pembroke","Longitude":"14.4618981005033","Latitude":"35.9347312677952"},{"Id":"9732","Name":"Ewropa, Luqa","Longitude":"14.4946583687142","Latitude":"35.8596352238956"},{"Id":"9733","Name":"Ewropa, Luqa","Longitude":"14.4943930183185","Latitude":"35.8595619791786"},{"Id":"7978","Name":"Exiles, Sliema","Longitude":"14.4984660811296","Latitude":"35.9162266031877"},{"Id":"8089","Name":"Exiles, Sliema","Longitude":"14.4980934654791","Latitude":"35.9155578650018"},{"Id":"9287","Name":"Eziljati, Imtarfa","Longitude":"14.3971635528218","Latitude":"35.8883703166711"},{"Id":"9288","Name":"Eziljati, Imtarfa","Longitude":"14.3974046304779","Latitude":"35.8887231486712"},{"Id":"8985","Name":"Fabriani, Naxxar","Longitude":"14.4459169102924","Latitude":"35.9181323818959"},{"Id":"9300","Name":"Fabriani, Naxxar","Longitude":"14.4458830312282","Latitude":"35.9182223848937"},{"Id":"9277","Name":"Falkun, Kappara","Longitude":"14.4865726393842","Latitude":"35.9060604233725"},{"Id":"8762","Name":"Fanal, Fanal","Longitude":"14.2212724433773","Latitude":"36.0637512621941"},{"Id":"8416","Name":"Far, Far","Longitude":"14.5114021463547","Latitude":"35.8131093474752"},{"Id":"8425","Name":"Far, Far","Longitude":"14.5106283181308","Latitude":"35.8129439095941"},{"Id":"7786","Name":"Farrug, Farruġ","Longitude":"14.4805989100656","Latitude":"35.8688076830633"},{"Id":"7826","Name":"Farrug, Farruġ","Longitude":"14.4807093640408","Latitude":"35.8671582278399"},{"Id":"7859","Name":"Farrugia, Żejtun","Longitude":"14.5283663768527","Latitude":"35.8532175936716"},{"Id":"7881","Name":"Farrugia, Żejtun","Longitude":"14.5276822701716","Latitude":"35.8527911512797"},{"Id":"9693","Name":"Farsina, Qormi","Longitude":"14.4639800282603","Latitude":"35.8775523400581"},{"Id":"9435","Name":"Farzina, Qormi","Longitude":"14.464969996839","Latitude":"35.8786026099104"},{"Id":"9120","Name":"Fatati, Santa Venera","Longitude":"14.4871930506829","Latitude":"35.8906277108226"},{"Id":"9306","Name":"Fatati, Santa Venera","Longitude":"14.4876054376037","Latitude":"35.8902507990631"},{"Id":"8212","Name":"Fawwara, Għajnsielem","Longitude":"14.2909895813104","Latitude":"36.0271746230928"},{"Id":"8307","Name":"Fawwara, Għajnsielem","Longitude":"14.2909997102788","Latitude":"36.0272828712425"},{"Id":"7661","Name":"Fejgel, Rabat","Longitude":"14.3932253918878","Latitude":"35.8802992346453"},{"Id":"7681","Name":"Fejgel, Rabat","Longitude":"14.3928685554261","Latitude":"35.8806039743389"},{"Id":"8899","Name":"Felic, San Ġwann","Longitude":"14.474712741704","Latitude":"35.9063697683795"},{"Id":"8902","Name":"Felic, San Ġwann","Longitude":"14.4743131997057","Latitude":"35.9064581796276"},{"Id":"7736","Name":"Felici, Qormi","Longitude":"14.4628009749394","Latitude":"35.8749775115081"},{"Id":"7748","Name":"Felici, Qormi","Longitude":"14.4628984201661","Latitude":"35.8753115394976"},{"Id":"8495","Name":"Ferretti, Qajjenza","Longitude":"14.5313363791428","Latitude":"35.8340610203975"},{"Id":"9230","Name":"Ferries 1, Sliema","Longitude":"14.5049406507499","Latitude":"35.908824313763"},{"Id":"9231","Name":"Ferries 2, Sliema","Longitude":"14.5046413746305","Latitude":"35.908832095527"},{"Id":"9232","Name":"Ferries 3, Sliema","Longitude":"14.5042977133436","Latitude":"35.9088487093019"},{"Id":"9233","Name":"Ferries 4, Sliema","Longitude":"14.5037995199938","Latitude":"35.908765507902"},{"Id":"9229","Name":"Ferries 5, Sliema","Longitude":"14.50448358151","Latitude":"35.9092551953128"},{"Id":"7686","Name":"Ferris, Rabat","Longitude":"14.4004968661299","Latitude":"35.8782981372336"},{"Id":"9021","Name":"Ferris, Rabat","Longitude":"14.4002993010246","Latitude":"35.878053719821"},{"Id":"9122","Name":"Ferrovija, Santa Venera","Longitude":"14.482051312566","Latitude":"35.8924268774985"},{"Id":"9255","Name":"Ferrovija, Santa Venera","Longitude":"14.4807431786941","Latitude":"35.8925294208313"},{"Id":"7927","Name":"Fgura, Fgura","Longitude":"14.5211960492996","Latitude":"35.8724565361155"},{"Id":"7956","Name":"Fgura, Fgura","Longitude":"14.5217512086896","Latitude":"35.8722423626507"},{"Id":"8782","Name":"Fgura, Wilġa","Longitude":"14.2132889133179","Latitude":"36.0559186755443"},{"Id":"8376","Name":"Fiddien, Rabat","Longitude":"14.3799187630162","Latitude":"35.8861637763065"},{"Id":"8435","Name":"Filfla, Żurrieq","Longitude":"14.4809478334408","Latitude":"35.8271730458251"},{"Id":"8469","Name":"Filfla, Żurrieq","Longitude":"14.4809673920496","Latitude":"35.8275698380929"},{"Id":"8440","Name":"Filippu, Żurrieq","Longitude":"14.4732133796095","Latitude":"35.8282032931789"},{"Id":"8464","Name":"Filippu, Żurrieq","Longitude":"14.4735985406225","Latitude":"35.8285566078828"},{"Id":"9440","Name":"Fin, Qormi","Longitude":"14.4635660773737","Latitude":"35.8781545643935"},{"Id":"8149","Name":"Fisher, Żebbiegħ","Longitude":"14.3733913667496","Latitude":"35.9187134395368"},{"Id":"8166","Name":"Fisher, Żebbiegħ","Longitude":"14.3729014221025","Latitude":"35.9189993902433"},{"Id":"9491","Name":"Fiteni, Mosta","Longitude":"14.4334164349391","Latitude":"35.9131874085849"},{"Id":"9492","Name":"Fiteni, Naxxar","Longitude":"14.433549427337","Latitude":"35.9131880360559"},{"Id":"7718","Name":"Fleur de Lys 1, Fleur-de-Lys","Longitude":"14.472305310565","Latitude":"35.8900673430362"},{"Id":"8289","Name":"Fleur de Lys 2, Fleur-de-Lys","Longitude":"14.4724504810146","Latitude":"35.8898966769742"},{"Id":"9216","Name":"Fleur de Lys 3, Fleur-de-Lys","Longitude":"14.4727547305613","Latitude":"35.8907996118513"},{"Id":"9476","Name":"Fleur de Lys 4, Fleur-de-Lys","Longitude":"14.4727692769345","Latitude":"35.890276748372"},{"Id":"7917","Name":"Floriani A, Furjana","Longitude":"14.507289536343","Latitude":"35.8928305951843"},{"Id":"8278","Name":"Floriani B, Furjana","Longitude":"14.5062196475242","Latitude":"35.8920418092251"},{"Id":"7964","Name":"Floriani C, Furjana","Longitude":"14.5058998994398","Latitude":"35.8917880461848"},{"Id":"9312","Name":"Fontaine, Balzan","Longitude":"14.4553700936803","Latitude":"35.897294682886"},{"Id":"8355","Name":"Formosa, Żurrieq","Longitude":"14.4704844679404","Latitude":"35.8306797392315"},{"Id":"8411","Name":"Formosa, Żurrieq","Longitude":"14.4706597522602","Latitude":"35.8309600097419"},{"Id":"9493","Name":"Forti, Mosta","Longitude":"14.4249766085354","Latitude":"35.9185568441781"},{"Id":"9494","Name":"Forti, Mosta","Longitude":"14.4248979802713","Latitude":"35.9187007223645"},{"Id":"8331","Name":"Fortini, Birgu","Longitude":"14.5252136943432","Latitude":"35.8860325884916"},{"Id":"8352","Name":"Fortini, Birgu","Longitude":"14.5255243925315","Latitude":"35.8859526720786"},{"Id":"8333","Name":"Fortizza, Rinella","Longitude":"14.5312272426771","Latitude":"35.893981285577"},{"Id":"8627","Name":"Fortunato, Rabat (Victoria)","Longitude":"14.2454161640171","Latitude":"36.0436025050895"},{"Id":"9094","Name":"Fossa, Valletta","Longitude":"14.5163441037898","Latitude":"35.9016129173237"},{"Id":"9103","Name":"Fossa, Valletta","Longitude":"14.5167863118768","Latitude":"35.9017860013089"},{"Id":"8496","Name":"Fossili, Qajjenza","Longitude":"14.5299060888398","Latitude":"35.834398046042"},{"Id":"9584","Name":"Fran, Xagħra","Longitude":"14.2617837214823","Latitude":"36.0490777239448"},{"Id":"8893","Name":"Francesco, San Ġiljan","Longitude":"14.4870875384323","Latitude":"35.9138524183962"},{"Id":"8907","Name":"Francesco, San Ġiljan","Longitude":"14.4871548504317","Latitude":"35.9137264824676"},{"Id":"8739","Name":"Franciz, Swieqi","Longitude":"14.474054621393","Latitude":"35.9187367797434"},{"Id":"9128","Name":"Frangisk, Qormi","Longitude":"14.4719091142712","Latitude":"35.8813200861385"},{"Id":"8364","Name":"Franka, Siġġiewi","Longitude":"14.4338960082047","Latitude":"35.8504925242187"},{"Id":"8403","Name":"Franka, Siġġiewi","Longitude":"14.4338773208643","Latitude":"35.850005570549"},{"Id":"8446","Name":"Franzina, Żurrieq","Longitude":"14.4685516391505","Latitude":"35.8233321178765"},{"Id":"8118","Name":"Frar, San Ġwann","Longitude":"14.4615691484937","Latitude":"35.9129382810205"},{"Id":"8186","Name":"Frar, San Ġwann","Longitude":"14.4622686409912","Latitude":"35.9127520806608"},{"Id":"8503","Name":"Freeport, Birżebbuġa","Longitude":"14.5308849134851","Latitude":"35.8185876150252"},{"Id":"8781","Name":"Frenc, Wilġa","Longitude":"14.2141136113226","Latitude":"36.0556085390143"},{"Id":"8010","Name":"Fugass, Buġibba","Longitude":"14.4187684109264","Latitude":"35.9459893839947"},{"Id":"9701","Name":"Fugass, Buġibba","Longitude":"14.4187340266534","Latitude":"35.9461424874437"},{"Id":"9253","Name":"Fuklar, Attard","Longitude":"14.431851290969","Latitude":"35.8933719705418"},{"Id":"9627","Name":"Furnar, Qormi","Longitude":"14.477513686753","Latitude":"35.8815068837476"},{"Id":"9630","Name":"Furnar, Qormi","Longitude":"14.4779314105228","Latitude":"35.8820045802594"},{"Id":"8343","Name":"Gakbu, Xgħajra","Longitude":"14.547784077693","Latitude":"35.8857229806561"},{"Id":"9177","Name":"Gakmu, Luqa","Longitude":"14.4919466342717","Latitude":"35.8593533063814"},{"Id":"8716","Name":"Galea, Marsalforn","Longitude":"14.2567708546989","Latitude":"36.0709547054728"},{"Id":"8900","Name":"Galea, San Ġwann","Longitude":"14.4715647251431","Latitude":"35.9064731640754"},{"Id":"8901","Name":"Galea, San Ġwann","Longitude":"14.4717301137244","Latitude":"35.9066001152673"},{"Id":"7928","Name":"Gallu, Fgura","Longitude":"14.5241546275564","Latitude":"35.872306003049"},{"Id":"7955","Name":"Gallu, Fgura","Longitude":"14.524498935439","Latitude":"35.8721540937341"},{"Id":"8879","Name":"Ganado, Paceville","Longitude":"14.4889730718881","Latitude":"35.9274204481224"},{"Id":"9399","Name":"Gandolfi, Marsaskala","Longitude":"14.5679297889271","Latitude":"35.8646725312446"},{"Id":"9469","Name":"Gang, Valletta","Longitude":"14.5129947604157","Latitude":"35.8966315689583"},{"Id":"9108","Name":"Ganni, Swatar","Longitude":"14.4784903594719","Latitude":"35.8981366177494"},{"Id":"9268","Name":"Ganni, Swatar","Longitude":"14.4783593433251","Latitude":"35.8978385214014"},{"Id":"8250","Name":"Garcin, Imsida","Longitude":"14.4875020057894","Latitude":"35.895984528243"},{"Id":"8124","Name":"Gargallo, Għargħur","Longitude":"14.4506767203451","Latitude":"35.9206336352823"},{"Id":"9541","Name":"Gargallo, Għargħur","Longitude":"14.4507094729341","Latitude":"35.9207059125968"},{"Id":"7660","Name":"Gargir, Rabat","Longitude":"14.3923601946252","Latitude":"35.8818906864401"},{"Id":"7682","Name":"Gargir, Rabat","Longitude":"14.3919019200422","Latitude":"35.8824203089583"},{"Id":"8185","Name":"Gaspare, Naxxar","Longitude":"14.4532866636322","Latitude":"35.9166605037333"},{"Id":"9390","Name":"Gaspare, Naxxar","Longitude":"14.4535639302018","Latitude":"35.9166347180788"},{"Id":"8177","Name":"Gatt, Mosta","Longitude":"14.4304937621771","Latitude":"35.9065468662844"},{"Id":"8499","Name":"Gawwi, Birżebbuġa","Longitude":"14.5256140727334","Latitude":"35.8188464288817"},{"Id":"8839","Name":"Gebla, San Lawrenz","Longitude":"14.2019151299404","Latitude":"36.0530576760694"},{"Id":"8841","Name":"Gebla, San Lawrenz","Longitude":"14.2017152076","Latitude":"36.0530653605451"},{"Id":"7723","Name":"Gejtano, Ħamrun","Longitude":"14.4869838152735","Latitude":"35.8869933702709"},{"Id":"8283","Name":"Gejtano, Ħamrun","Longitude":"14.4877177101509","Latitude":"35.8865817666231"},{"Id":"9291","Name":"Gellewz, Naxxar","Longitude":"14.4372209860607","Latitude":"35.9096259722193"},{"Id":"8755","Name":"Gelmus, Rabat (Victoria)","Longitude":"14.237388698155","Latitude":"36.049493011126"},{"Id":"9192","Name":"Gelmus, Rabat (Victoria)","Longitude":"14.2373117715393","Latitude":"36.0494113811632"},{"Id":"8523","Name":"Gemmugha, Marsaskala","Longitude":"14.5563926032643","Latitude":"35.8638821522421"},{"Id":"9104","Name":"Gendus, Valletta","Longitude":"14.5146727643407","Latitude":"35.9012906147971"},{"Id":"8838","Name":"General, San Lawrenz","Longitude":"14.2038060152193","Latitude":"36.0549184459706"},{"Id":"9033","Name":"Genius, Birgu","Longitude":"14.5293395574932","Latitude":"35.883425164367"},{"Id":"9359","Name":"Genius, Birgu","Longitude":"14.5284449069337","Latitude":"35.8829618382207"},{"Id":"8066","Name":"Geraldu, San Pawl il-Baħar","Longitude":"14.4012062429812","Latitude":"35.9488422285118"},{"Id":"8222","Name":"Gerarda, Iklin","Longitude":"14.450610709975","Latitude":"35.9141508737017"},{"Id":"9712","Name":"Gerarda, Iklin","Longitude":"14.451569990366","Latitude":"35.911657842198"},{"Id":"8773","Name":"Gerxija, Sannat","Longitude":"14.2403348755793","Latitude":"36.0247908253887"},{"Id":"8812","Name":"Ggantija, Xagħra","Longitude":"14.2658947657664","Latitude":"36.0475252303162"},{"Id":"7861","Name":"Ghadam, Bir id-Deheb","Longitude":"14.5253838824435","Latitude":"35.850068257698"},{"Id":"7976","Name":"Ghadir, Sliema","Longitude":"14.5041795799363","Latitude":"35.9153487361423"},{"Id":"8091","Name":"Ghadir, Sliema","Longitude":"14.5043787388194","Latitude":"35.9154036541739"},{"Id":"8036","Name":"Ghadira, Mellieħa","Longitude":"14.3496683559852","Latitude":"35.9692292968255"},{"Id":"8049","Name":"Ghadira, Mellieħa","Longitude":"14.3501890116228","Latitude":"35.969304243922"},{"Id":"8801","Name":"Ghadra, Santa Luċija","Longitude":"14.221037280773","Latitude":"36.0414180766828"},{"Id":"8148","Name":"Ghajn, Żebbiegħ","Longitude":"14.3762965501562","Latitude":"35.9185572642322"},{"Id":"8167","Name":"Ghajn, Żebbiegħ","Longitude":"14.3764175468639","Latitude":"35.9186750993981"},{"Id":"8732","Name":"Ghajn, Fontana","Longitude":"14.2349550637456","Latitude":"36.037108062072"},{"Id":"9607","Name":"Ghajn, Fontana","Longitude":"14.2349337365656","Latitude":"36.0370177696037"},{"Id":"8681","Name":"Ghajnsielem, Għajnsielem","Longitude":"14.2849565734534","Latitude":"36.0266429383607"},{"Id":"8688","Name":"Ghajnsielem, Għajnsielem","Longitude":"14.2838880416749","Latitude":"36.0269791581847"},{"Id":"8761","Name":"Ghammar, Ta' Għammar","Longitude":"14.2172851436114","Latitude":"36.0649694428652"},{"Id":"9438","Name":"Ghaqda, Qormi","Longitude":"14.4732618295527","Latitude":"35.8794777448853"},{"Id":"9572","Name":"Ghar, Far","Longitude":"14.5047023215893","Latitude":"35.8135868320295"},{"Id":"9573","Name":"Ghar, Far","Longitude":"14.5045547283509","Latitude":"35.8141812875429"},{"Id":"8718","Name":"Gharajjek, Marsalforn","Longitude":"14.2594707615234","Latitude":"36.0684380316966"},{"Id":"8709","Name":"Gharajjex, Marsalforn","Longitude":"14.2593985261754","Latitude":"36.0678515708456"},{"Id":"9570","Name":"Gharajjex, Far","Longitude":"14.5034201537475","Latitude":"35.8203977229497"},{"Id":"9575","Name":"Gharajjex, Far","Longitude":"14.502857611914","Latitude":"35.8200708177956"},{"Id":"8791","Name":"Gharb, Għarb","Longitude":"14.2090208260996","Latitude":"36.0597041844886"},{"Id":"7936","Name":"Gharghar, Żabbar","Longitude":"14.5527342947082","Latitude":"35.8723256491658"},{"Id":"7946","Name":"Gharghar, Marsaskala","Longitude":"14.5531905864135","Latitude":"35.8719486730484"},{"Id":"8122","Name":"Gharghur, Għargħur","Longitude":"14.4528706852519","Latitude":"35.9239525002572"},{"Id":"9447","Name":"Gharib, Għajnsielem","Longitude":"14.2887548378859","Latitude":"36.0300734556006"},{"Id":"7666","Name":"Gharix, Rabat","Longitude":"14.3898559806876","Latitude":"35.8660549605735"},{"Id":"7674","Name":"Gharix, Rabat","Longitude":"14.3897226533868","Latitude":"35.8661083792693"},{"Id":"9144","Name":"Gharix, Attard","Longitude":"14.4345037147177","Latitude":"35.8896608936829"},{"Id":"8223","Name":"Gharusa, Mosta","Longitude":"14.4152203448567","Latitude":"35.917391748649"},{"Id":"8236","Name":"Gharusa, Mosta","Longitude":"14.4145657023408","Latitude":"35.9174877335953"},{"Id":"7795","Name":"Ghasel, Kirkop","Longitude":"14.4838880900777","Latitude":"35.843279403248"},{"Id":"9689","Name":"Ghasfur, San Pawl il-Baħar","Longitude":"14.4219260005863","Latitude":"35.9432728201959"},{"Id":"9691","Name":"Ghasfur, San Pawl il-Baħar","Longitude":"14.4224536441483","Latitude":"35.9438974562593"},{"Id":"8764","Name":"Ghasri, Għasri","Longitude":"14.2266544335877","Latitude":"36.0584308410787"},{"Id":"8589","Name":"Ghawwiema, Marsaskala","Longitude":"14.5691141559768","Latitude":"35.866867688746"},{"Id":"8617","Name":"Ghazziela, Żebbuġ","Longitude":"14.2361938962101","Latitude":"36.0720334315761"},{"Id":"9539","Name":"Ghemieri 1, Rabat","Longitude":"14.3689664775453","Latitude":"35.8952939732257"},{"Id":"9388","Name":"Ghenba, Attard","Longitude":"14.4351208328876","Latitude":"35.8963716771709"},{"Id":"9486","Name":"Ghenba, Attard","Longitude":"14.4355794156198","Latitude":"35.8957697637636"},{"Id":"9294","Name":"Ghenieq, Naxxar","Longitude":"14.4420340318625","Latitude":"35.9123261686671"},{"Id":"9719","Name":"Gherien, San Pawl il-Baħar","Longitude":"14.3663449021461","Latitude":"35.9378081530019"},{"Id":"9720","Name":"Gherien, San Pawl il-Baħar","Longitude":"14.3666543751125","Latitude":"35.9379269924778"},{"Id":"8301","Name":"Gheriexem, Rabat","Longitude":"14.3985867971634","Latitude":"35.8847710684913"},{"Id":"8377","Name":"Ghermieri, Baħrija","Longitude":"14.3621497490809","Latitude":"35.8928056297961"},{"Id":"9168","Name":"Ghid, Siġġiewi","Longitude":"14.4441290513671","Latitude":"35.8583752283892"},{"Id":"8622","Name":"Gholi, Żebbuġ","Longitude":"14.2361460112691","Latitude":"36.0643518408287"},{"Id":"8623","Name":"Gholi, Żebbuġ","Longitude":"14.2359125780051","Latitude":"36.06437739983"},{"Id":"8136","Name":"Gholja 1, Mosta","Longitude":"14.4219008763914","Latitude":"35.9056042117955"},{"Id":"8137","Name":"Gholja 2, Mosta","Longitude":"14.4199901012492","Latitude":"35.9062441455432"},{"Id":"8534","Name":"Ghollieq, Bulebel","Longitude":"14.5277289637221","Latitude":"35.8691915415619"},{"Id":"8543","Name":"Ghollieq, Bulebel","Longitude":"14.5280561766759","Latitude":"35.8681830303969"},{"Id":"8883","Name":"Ghomor, San Ġiljan","Longitude":"14.4879247681076","Latitude":"35.9163624283638"},{"Id":"9465","Name":"Ghonoq, San Lawrenz","Longitude":"14.2007019534855","Latitude":"36.0577467151516"},{"Id":"8667","Name":"Ghonq, Rabat (Victoria)","Longitude":"14.2492723535958","Latitude":"36.0420038978992"},{"Id":"8846","Name":"Ghonqa, Pergla","Longitude":"14.2686771478053","Latitude":"36.0587757180351"},{"Id":"8873","Name":"Ghonqa, Pergla","Longitude":"14.2684550100547","Latitude":"36.0587833782486"},{"Id":"8323","Name":"Ghuxa, Bormla","Longitude":"14.5181617006472","Latitude":"35.8796301796914"},{"Id":"8566","Name":"Gibja, Gudja","Longitude":"14.4997536180876","Latitude":"35.8507486859084"},{"Id":"8445","Name":"Gibjun, Żurrieq","Longitude":"14.4680979410539","Latitude":"35.8249620224557"},{"Id":"9431","Name":"Gibjun, Ta' Qali","Longitude":"14.4254017316963","Latitude":"35.8934855423247"},{"Id":"9507","Name":"Gibjun, Ta' Qali","Longitude":"14.4292250237688","Latitude":"35.8934045977688"},{"Id":"9538","Name":"Gibjun, Żurrieq","Longitude":"14.4681303103857","Latitude":"35.8250883908738"},{"Id":"9706","Name":"Gifen, Buġibba","Longitude":"14.4138885611467","Latitude":"35.949166290068"},{"Id":"9605","Name":"Giljan, Fontana","Longitude":"14.2381194583774","Latitude":"36.0393280268481"},{"Id":"8451","Name":"Gilju, Imqabba","Longitude":"14.4660372195265","Latitude":"35.8450226533538"},{"Id":"8457","Name":"Gilju, Imqabba","Longitude":"14.4661152762298","Latitude":"35.8449418556934"},{"Id":"9500","Name":"Gillieru, San Pawl il-Baħar","Longitude":"14.4074095212066","Latitude":"35.9496483807418"},{"Id":"9167","Name":"Gimach, Żebbuġ (Malta)","Longitude":"14.4349249922608","Latitude":"35.8709096257783"},{"Id":"8894","Name":"Giorni, San Ġiljan","Longitude":"14.489323675358","Latitude":"35.914267667854"},{"Id":"8906","Name":"Giorni, San Ġiljan","Longitude":"14.4894148880722","Latitude":"35.9138713534734"},{"Id":"9697","Name":"Giovanni, Birkirkara","Longitude":"14.4721222690077","Latitude":"35.8992808723698"},{"Id":"8704","Name":"Gir, Rabat (Victoria)","Longitude":"14.2453413058516","Latitude":"36.047956584442"},{"Id":"8723","Name":"Gir, Rabat (Victoria)","Longitude":"14.2446921089234","Latitude":"36.0473484490247"},{"Id":"8366","Name":"Girgenti, Siġġiewi","Longitude":"14.4213374351958","Latitude":"35.8566267058685"},{"Id":"8401","Name":"Girgenti, Siġġiewi","Longitude":"14.4222224378889","Latitude":"35.8567662051371"},{"Id":"8502","Name":"Girghien, Birżebbuġa","Longitude":"14.5266114626545","Latitude":"35.8205273588511"},{"Id":"8487","Name":"Girgor, Żejtun","Longitude":"14.5388451233083","Latitude":"35.8528705763874"},{"Id":"8513","Name":"Girgor, Żejtun","Longitude":"14.538447173475","Latitude":"35.8527428234003"},{"Id":"8804","Name":"Girgor, Kerċem","Longitude":"14.2270307541514","Latitude":"36.0415199756297"},{"Id":"8574","Name":"Gistakor, Għaxaq","Longitude":"14.5103220581076","Latitude":"35.8501881431629"},{"Id":"8342","Name":"Glavan, Xgħajra","Longitude":"14.5483980557935","Latitude":"35.8868613100798"},{"Id":"9461","Name":"Gliex, Għajnsielem","Longitude":"14.2970610726288","Latitude":"36.0308797528098"},{"Id":"8447","Name":"Glud, Żurrieq","Longitude":"14.4695468595107","Latitude":"35.8318206462687"},{"Id":"8461","Name":"Glud, Żurrieq","Longitude":"14.4709006280479","Latitude":"35.8313667938265"},{"Id":"8805","Name":"Gnieg, Kerċem","Longitude":"14.2296568451991","Latitude":"36.0420147055094"},{"Id":"8099","Name":"Gnien, Imsida","Longitude":"14.4906577839554","Latitude":"35.8963315451613"},{"Id":"9629","Name":"Gojjin, Qormi","Longitude":"14.4741716507058","Latitude":"35.8826193002638"},{"Id":"8354","Name":"Gonna, Żurrieq","Longitude":"14.4741938412225","Latitude":"35.8339778763033"},{"Id":"8412","Name":"Gonna, Żurrieq","Longitude":"14.4736972797055","Latitude":"35.8337232527264"},{"Id":"8699","Name":"Gonna, Rabat (Victoria)","Longitude":"14.2441975881216","Latitude":"36.0375273040712"},{"Id":"7902","Name":"Gorg, Birżebbuġa","Longitude":"14.5297796479591","Latitude":"35.8295559053473"},{"Id":"7911","Name":"Gorg, Birżebbuġa","Longitude":"14.5288487055524","Latitude":"35.8297145494464"},{"Id":"7924","Name":"Grasso, Fgura","Longitude":"14.5123147271966","Latitude":"35.8738092783046"},{"Id":"7959","Name":"Grasso, Fgura","Longitude":"14.5115622419522","Latitude":"35.8736799966444"},{"Id":"8560","Name":"Gravina, Għaxaq","Longitude":"14.5133853332577","Latitude":"35.8508948246699"},{"Id":"8572","Name":"Gravina, Għaxaq","Longitude":"14.5128863891753","Latitude":"35.8509919797584"},{"Id":"8706","Name":"Grazzja, Għattuq","Longitude":"14.2462227925854","Latitude":"36.0498193493566"},{"Id":"8721","Name":"Grazzja, Għattuq","Longitude":"14.2463782981416","Latitude":"36.0498113113646"},{"Id":"9387","Name":"Griffen, Żejtun","Longitude":"14.5359880219061","Latitude":"35.8509391534113"},{"Id":"8474","Name":"Grigal, Marsaskala","Longitude":"14.569622871834","Latitude":"35.8629204748388"},{"Id":"9245","Name":"Grigal, Marsaskala","Longitude":"14.5696678091173","Latitude":"35.8628034268924"},{"Id":"8794","Name":"Grima, Għarb","Longitude":"14.2144015499214","Latitude":"36.0556825511045"},{"Id":"8946","Name":"Grima, Manikata","Longitude":"14.3533126246663","Latitude":"35.9412277872413"},{"Id":"8960","Name":"Grima, Manikata","Longitude":"14.3534021975246","Latitude":"35.941120079554"},{"Id":"8597","Name":"Grixti, Marsa","Longitude":"14.4899573781761","Latitude":"35.8690461324731"},{"Id":"9174","Name":"Grixti, Marsa","Longitude":"14.4899824779351","Latitude":"35.8685864215707"},{"Id":"8729","Name":"Grotta, Xlendi","Longitude":"14.2244827497731","Latitude":"36.0330648905455"},{"Id":"9610","Name":"Grotta, Xlendi","Longitude":"14.2244066477721","Latitude":"36.032902116842"},{"Id":"8359","Name":"Grotto, Żurrieq","Longitude":"14.4538983726314","Latitude":"35.8194886967746"},{"Id":"7991","Name":"Gudja, Imġarr","Longitude":"14.294779659535","Latitude":"36.0265748893994"},{"Id":"8387","Name":"Gudja, Imġarr","Longitude":"14.2944583727185","Latitude":"36.0265098896816"},{"Id":"8565","Name":"Gudja, Gudja","Longitude":"14.5017681306009","Latitude":"35.8491431807105"},{"Id":"8319","Name":"Gulija, Bormla","Longitude":"14.5193146135053","Latitude":"35.8813388273557"},{"Id":"9048","Name":"Guljietta, Santa Luċija","Longitude":"14.5030142325737","Latitude":"35.8624109562327"},{"Id":"8778","Name":"Guze, Munxar","Longitude":"14.2366186195452","Latitude":"36.0315109344638"},{"Id":"9119","Name":"Guze, Gwardamanġa","Longitude":"14.488211394605","Latitude":"35.8890632710975"},{"Id":"9307","Name":"Guze, Pietà","Longitude":"14.4892223448889","Latitude":"35.888643822686"},{"Id":"7719","Name":"Guzepp, Santa Venera","Longitude":"14.4740120384484","Latitude":"35.8900027016711"},{"Id":"8288","Name":"Guzepp, Santa Venera","Longitude":"14.4750115185191","Latitude":"35.8896554509875"},{"Id":"9665","Name":"Guzeppi, Kirkop","Longitude":"14.4874151830084","Latitude":"35.8423838771694"},{"Id":"9668","Name":"Guzeppi, Kirkop","Longitude":"14.4875340276204","Latitude":"35.8428442034398"},{"Id":"7716","Name":"Gwakkin, Birkirkara","Longitude":"14.465079976799","Latitude":"35.8919016892299"},{"Id":"7937","Name":"Gwakkin, Marsaskala","Longitude":"14.5571267925246","Latitude":"35.8712780287138"},{"Id":"7945","Name":"Gwakkin, Marsaskala","Longitude":"14.5574163005777","Latitude":"35.8710086140587"},{"Id":"8291","Name":"Gwakkin, Birkirkara","Longitude":"14.4659919706775","Latitude":"35.8913918365811"},{"Id":"8113","Name":"Gwann, San Ġwann","Longitude":"14.480736495319","Latitude":"35.9088212624287"},{"Id":"8190","Name":"Gwann, San Ġwann","Longitude":"14.4803268084815","Latitude":"35.9087653943244"},{"Id":"8859","Name":"Gwann, Nadur","Longitude":"14.2971069741643","Latitude":"36.0369565917469"},{"Id":"8862","Name":"Gwann, Nadur","Longitude":"14.296874441001","Latitude":"36.0368921186354"},{"Id":"9091","Name":"Gwardamangia, Pietà","Longitude":"14.4921526501476","Latitude":"35.8912889200068"},{"Id":"9093","Name":"Gwardamangia, Pietà","Longitude":"14.4924073118558","Latitude":"35.8913170445373"},{"Id":"8580","Name":"Gwiedi, Żejtun","Longitude":"14.5329189258509","Latitude":"35.8549664621468"},{"Id":"8004","Name":"Gzejjer, Buġibba","Longitude":"14.4174498976954","Latitude":"35.9549267376427"},{"Id":"7972","Name":"Gzira, Gżira","Longitude":"14.4948042040656","Latitude":"35.9029577757802"},{"Id":"8095","Name":"Gzira, Gżira","Longitude":"14.4952338018119","Latitude":"35.9033653013666"},{"Id":"9393","Name":"Habel, Gudja","Longitude":"14.5048811085212","Latitude":"35.8507428750132"},{"Id":"7680","Name":"Haddiem, Rabat","Longitude":"14.394080712247","Latitude":"35.8785454388004"},{"Id":"7860","Name":"Haddiema, Bir id-Deheb","Longitude":"14.5263322312707","Latitude":"35.8507482051631"},{"Id":"7880","Name":"Haddiema, Bir id-Deheb","Longitude":"14.5260888141691","Latitude":"35.8507111810864"},{"Id":"8360","Name":"Hagar, Qrendi","Longitude":"14.4457184381095","Latitude":"35.8273313056859"},{"Id":"8407","Name":"Hagar, Qrendi","Longitude":"14.4456726502818","Latitude":"35.8275474801951"},{"Id":"8450","Name":"Hagra, Imqabba","Longitude":"14.4637777595012","Latitude":"35.8434437988846"},{"Id":"8458","Name":"Hagra, Imqabba","Longitude":"14.463866950619","Latitude":"35.8433540362956"},{"Id":"7804","Name":"Hajt, Safi","Longitude":"14.4810462265531","Latitude":"35.8324659113374"},{"Id":"7806","Name":"Hajt, Safi","Longitude":"14.4813985215056","Latitude":"35.8327739787038"},{"Id":"9705","Name":"Halel, Buġibba","Longitude":"14.4153080384225","Latitude":"35.952148450921"},{"Id":"8831","Name":"Hali, Nadur","Longitude":"14.2920919551557","Latitude":"36.0466189308057"},{"Id":"8834","Name":"Hali, Nadur","Longitude":"14.2921314361411","Latitude":"36.0471691191815"},{"Id":"8921","Name":"Hallet, Sliema","Longitude":"14.5087733650427","Latitude":"35.9109137282659"},{"Id":"8810","Name":"Hamet, Ta' Ħamet","Longitude":"14.2659855332183","Latitude":"36.0425311177725"},{"Id":"8825","Name":"Hamet, Ta' Ħamet","Longitude":"14.2660868593864","Latitude":"36.0423784719984"},{"Id":"9434","Name":"Hammett, Qormi","Longitude":"14.4656244999198","Latitude":"35.8801202116702"},{"Id":"9694","Name":"Hammett, Qormi","Longitude":"14.4656133612094","Latitude":"35.8801291781174"},{"Id":"7934","Name":"Hamra, Żabbar","Longitude":"14.5431968795583","Latitude":"35.8761396115448"},{"Id":"7948","Name":"Hamra, Żabbar","Longitude":"14.5428979363068","Latitude":"35.8761114262539"},{"Id":"7992","Name":"Hamri, Għajnsielem","Longitude":"14.2928477572557","Latitude":"36.0266536694774"},{"Id":"8386","Name":"Hamri, Għajnsielem","Longitude":"14.2929138634864","Latitude":"36.0267081534298"},{"Id":"7678","Name":"Hamrija, Rabat","Longitude":"14.3955944324359","Latitude":"35.8761548167938"},{"Id":"8673","Name":"Hamrija, Xewkija","Longitude":"14.2532827619969","Latitude":"36.0346361100237"},{"Id":"8697","Name":"Hamrija, Xewkija","Longitude":"14.2525184445867","Latitude":"36.0344690660221"},{"Id":"9320","Name":"Hamrija, Rabat","Longitude":"14.3957496538732","Latitude":"35.8761375657527"},{"Id":"8829","Name":"Hanaq, Nadur","Longitude":"14.2901024797021","Latitude":"36.0431631844189"},{"Id":"8836","Name":"Hanaq, Nadur","Longitude":"14.2900598579625","Latitude":"36.0429645874306"},{"Id":"7762","Name":"Handaq, Qormi","Longitude":"14.4704352509035","Latitude":"35.8747228968183"},{"Id":"7780","Name":"Handaq, Qormi","Longitude":"14.4704965558516","Latitude":"35.8754985439634"},{"Id":"8526","Name":"Hanxul, Marsaskala","Longitude":"14.5594474460553","Latitude":"35.8642810837372"},{"Id":"8554","Name":"Hareb, Għaxaq","Longitude":"14.521884010584","Latitude":"35.8482872327251"},{"Id":"8579","Name":"Hareb, Għaxaq","Longitude":"14.52068787553","Latitude":"35.8483095156995"},{"Id":"9437","Name":"Harifa, Qormi","Longitude":"14.4632615532101","Latitude":"35.8773147157725"},{"Id":"8707","Name":"Harrax, Ħarrax","Longitude":"14.2508164369345","Latitude":"36.0571237528066"},{"Id":"8720","Name":"Harrax, Ħarrax","Longitude":"14.2509826317868","Latitude":"36.0571608538291"},{"Id":"7939","Name":"Harruba, Marsaskala","Longitude":"14.563115756772","Latitude":"35.8659263868609"},{"Id":"7943","Name":"Harruba, Marsaskala","Longitude":"14.5628062136002","Latitude":"35.8658170680588"},{"Id":"8418","Name":"Hasan, Birżebbuġa","Longitude":"14.5246968983924","Latitude":"35.8148576801929"},{"Id":"8423","Name":"Hasan, Birżebbuġa","Longitude":"14.5235476968227","Latitude":"35.8145195342124"},{"Id":"9545","Name":"Hassajtek, Qrendi","Longitude":"14.4383398946164","Latitude":"35.8327788177191"},{"Id":"9556","Name":"Hassajtek, Qrendi","Longitude":"14.4388728509345","Latitude":"35.8325649218228"},{"Id":"8251","Name":"Hasselin, Swatar","Longitude":"14.4854862484999","Latitude":"35.8958406695843"},{"Id":"8275","Name":"Hasselin, Swatar","Longitude":"14.4860035875747","Latitude":"35.8963748280043"},{"Id":"9099","Name":"Hatab, Furjana","Longitude":"14.5011386919479","Latitude":"35.8859710740601"},{"Id":"9311","Name":"Hatttijiet, Bormla","Longitude":"14.5234252868943","Latitude":"35.8775594596166"},{"Id":"9265","Name":"Hawha, San Ġwann","Longitude":"14.4716744592603","Latitude":"35.9083038873897"},{"Id":"9266","Name":"Hawha, San Ġwann","Longitude":"14.4715937675711","Latitude":"35.9087723623181"},{"Id":"9034","Name":"Hawli, Birgu","Longitude":"14.5282097317578","Latitude":"35.8815183507397"},{"Id":"9358","Name":"Hawli, Birgu","Longitude":"14.5281650971073","Latitude":"35.8815722715741"},{"Id":"9026","Name":"Hawlija, Żabbar","Longitude":"14.5311551125185","Latitude":"35.8780226476986"},{"Id":"9037","Name":"Hawlija, Żabbar","Longitude":"14.5311316814488","Latitude":"35.8782389410181"},{"Id":"8796","Name":"Hawt, Rabat (Victoria)","Longitude":"14.2347180865786","Latitude":"36.0443911813373"},{"Id":"8807","Name":"Hawt, Rabat (Victoria)","Longitude":"14.2343306127683","Latitude":"36.0442805199138"},{"Id":"9006","Name":"Hawwiefa, Dingli","Longitude":"14.3770796059471","Latitude":"35.8638886702647"},{"Id":"9007","Name":"Hbula, Dingli","Longitude":"14.3766175407281","Latitude":"35.8620740612891"},{"Id":"8691","Name":"Heliport, Għajnsielem","Longitude":"14.2724046156305","Latitude":"36.0301737067951"},{"Id":"8506","Name":"Herakles, Qajjenza","Longitude":"14.5317510705545","Latitude":"35.8350904719324"},{"Id":"8485","Name":"Herba, Żejtun","Longitude":"14.544607188029","Latitude":"35.8561834192712"},{"Id":"8516","Name":"Herba, Żejtun","Longitude":"14.5459882159089","Latitude":"35.8567746901845"},{"Id":"7772","Name":"Hesri, Siġġiewi","Longitude":"14.435229731713","Latitude":"35.8560616885884"},{"Id":"8201","Name":"Hgejjeg, San Ġwann","Longitude":"14.4690458957089","Latitude":"35.9102667885514"},{"Id":"9146","Name":"Hgieg, Ta' Qali","Longitude":"14.4218012750947","Latitude":"35.8903487396888"},{"Id":"9508","Name":"Hgieg, Ta' Qali","Longitude":"14.4216118745886","Latitude":"35.8904920831661"},{"Id":"8633","Name":"Hida, Nadur","Longitude":"14.2887146888308","Latitude":"36.03947656748"},{"Id":"8659","Name":"Hida, Nadur","Longitude":"14.2883366380214","Latitude":"36.0395464495202"},{"Id":"8505","Name":"Hieles, Birżebbuġa","Longitude":"14.5251151375063","Latitude":"35.8208370206157"},{"Id":"7737","Name":"Hlas, Żebbuġ (Malta)","Longitude":"14.4559070769868","Latitude":"35.8738735798139"},{"Id":"7747","Name":"Hlas, Żebbuġ (Malta)","Longitude":"14.4563779176826","Latitude":"35.8746781359334"},{"Id":"8678","Name":"Hniena, Xewkija","Longitude":"14.2685643243731","Latitude":"36.0325665426733"},{"Id":"8692","Name":"Hniena, Xewkija","Longitude":"14.2678869495239","Latitude":"36.0325984714978"},{"Id":"9628","Name":"Hobz, Qormi","Longitude":"14.4730335499766","Latitude":"35.8821635125795"},{"Id":"8613","Name":"Hofra, Rabat (Victoria)","Longitude":"14.2388593686621","Latitude":"36.0489524042282"},{"Id":"8625","Name":"Hofra, Rabat (Victoria)","Longitude":"14.2382789763331","Latitude":"36.0492732804386"},{"Id":"9041","Name":"Hofra, Żabbar","Longitude":"14.5415589207375","Latitude":"35.8816331532291"},{"Id":"7929","Name":"Hompesch, Fgura","Longitude":"14.5266368781312","Latitude":"35.8721535210877"},{"Id":"7954","Name":"Hompesch, Fgura","Longitude":"14.5264824954732","Latitude":"35.8720357041457"},{"Id":"8789","Name":"Hongur, Birbuba","Longitude":"14.2019186491008","Latitude":"36.0626052050658"},{"Id":"8867","Name":"Hosna, Għajn Ħosna","Longitude":"14.2773924620684","Latitude":"36.0503628855997"},{"Id":"7864","Name":"Hotob 1, Marsaxlokk","Longitude":"14.5358368428177","Latitude":"35.8464756108409"},{"Id":"7876","Name":"Hotob 1, Marsaxlokk","Longitude":"14.5376813381548","Latitude":"35.8454007914347"},{"Id":"7865","Name":"Hotob 2, Marsaxlokk","Longitude":"14.5383142487917","Latitude":"35.8451056939779"},{"Id":"7875","Name":"Hotob 2, Marsaxlokk","Longitude":"14.5394493132599","Latitude":"35.8441453283792"},{"Id":"8200","Name":"Howard, Sliema","Longitude":"14.499755597274","Latitude":"35.9156188971311"},{"Id":"8917","Name":"Howard, Sliema","Longitude":"14.4996309003976","Latitude":"35.916060159722"},{"Id":"8854","Name":"Hozna, Għajn Ħosna","Longitude":"14.2775357936812","Latitude":"36.0504719371935"},{"Id":"8982","Name":"Htajriet, Mosta","Longitude":"14.4356127797681","Latitude":"35.9082389847846"},{"Id":"9490","Name":"Htajriet, Mosta","Longitude":"14.4345724027659","Latitude":"35.9096045137555"},{"Id":"8199","Name":"Huber, Sliema","Longitude":"14.5011115476372","Latitude":"35.9132533397825"},{"Id":"8918","Name":"Huber, Sliema","Longitude":"14.5013106991039","Latitude":"35.9133082628636"},{"Id":"9031","Name":"Huttijiet, Bormla","Longitude":"14.5235830226445","Latitude":"35.8771182998245"},{"Id":"8585","Name":"Huxlief, Paola","Longitude":"14.5415388375155","Latitude":"35.854350504404"},{"Id":"8145","Name":"Hzejjen, Mosta","Longitude":"14.3954743808543","Latitude":"35.9123532323166"},{"Id":"8170","Name":"Hzejjen, Mosta","Longitude":"14.396750375238","Latitude":"35.9121612994615"},{"Id":"9111","Name":"Ibghal, Birkirkara","Longitude":"14.4677338643124","Latitude":"35.8976656751094"},{"Id":"9112","Name":"Ibghal, Birkirkara","Longitude":"14.4677554823157","Latitude":"35.8977469146995"},{"Id":"8313","Name":"Ibliet, Bormla","Longitude":"14.5177722158675","Latitude":"35.8799171294962"},{"Id":"8742","Name":"Ibragg, Swieqi","Longitude":"14.4748325515224","Latitude":"35.9217785584281"},{"Id":"9095","Name":"Iermu, Valletta","Longitude":"14.5184766706133","Latitude":"35.9008010318544"},{"Id":"7831","Name":"Ikhal, Imqabba","Longitude":"14.4730794471773","Latitude":"35.8467848217932"},{"Id":"7841","Name":"Ikhal, Imqabba","Longitude":"14.4727256911261","Latitude":"35.8466931095176"},{"Id":"8219","Name":"Iklin, Iklin","Longitude":"14.45313137372","Latitude":"35.9037940358231"},{"Id":"8239","Name":"Iklin, Iklin","Longitude":"14.4532431182088","Latitude":"35.9036593052545"},{"Id":"9096","Name":"Imgerbeb, Valletta","Longitude":"14.5180049530594","Latitude":"35.8981845009719"},{"Id":"8756","Name":"Imghallen, Rabat (Victoria)","Longitude":"14.2374242331774","Latitude":"36.0469598468775"},{"Id":"9191","Name":"Imghallen, Rabat (Victoria)","Longitude":"14.2373000353533","Latitude":"36.0471754318429"},{"Id":"8013","Name":"Imhasel, San Pawl il-Baħar","Longitude":"14.4082637570419","Latitude":"35.9466142466147"},{"Id":"8069","Name":"Imhasel, San Pawl il-Baħar","Longitude":"14.4085186981308","Latitude":"35.9466245190797"},{"Id":"8321","Name":"Immakulata, Bormla","Longitude":"14.5218974587556","Latitude":"35.8774001159121"},{"Id":"8125","Name":"Imnara, Naxxar","Longitude":"14.4481801815286","Latitude":"35.917818231397"},{"Id":"8984","Name":"Imnara, Naxxar","Longitude":"14.4479473104124","Latitude":"35.9162393718589"},{"Id":"8501","Name":"Imnarja, Birżebbuġa","Longitude":"14.5235544817932","Latitude":"35.8207947802537"},{"Id":"9256","Name":"Imperu, Gżira","Longitude":"14.4914869991172","Latitude":"35.9018167774692"},{"Id":"9260","Name":"Imperu, Gżira","Longitude":"14.4915103726274","Latitude":"35.9016275408554"},{"Id":"7906","Name":"Imqaddsa, Birżebbuġa","Longitude":"14.5296675940675","Latitude":"35.8260301691196"},{"Id":"9044","Name":"Imqaddsa, Żabbar","Longitude":"14.5402520098485","Latitude":"35.8777332316351"},{"Id":"8823","Name":"Imqades, Xagħra","Longitude":"14.2676497417232","Latitude":"36.0486268563777"},{"Id":"9552","Name":"Imsiebah, Mosta","Longitude":"14.4287747917854","Latitude":"35.9190528185461"},{"Id":"9553","Name":"Imsiebah, Mosta","Longitude":"14.4289405907711","Latitude":"35.9191167187174"},{"Id":"7709","Name":"Incita, Attard","Longitude":"14.4359870605894","Latitude":"35.8882884246713"},{"Id":"8298","Name":"Incita, Attard","Longitude":"14.4359441503352","Latitude":"35.888089871719"},{"Id":"8133","Name":"Independenza, Mosta","Longitude":"14.4305358570758","Latitude":"35.9053118813778"},{"Id":"9445","Name":"Indipenenza, Xewkija","Longitude":"14.2608189137625","Latitude":"36.0358999184985"},{"Id":"8205","Name":"Industrijali, San Ġwann","Longitude":"14.472232861163","Latitude":"35.9043212865027"},{"Id":"8246","Name":"Industrijali, San Ġwann","Longitude":"14.4722590946129","Latitude":"35.9037083159556"},{"Id":"8676","Name":"Industrijali, Xewkija","Longitude":"14.2599257255453","Latitude":"36.0364533795705"},{"Id":"8694","Name":"Industrijali, Xewkija","Longitude":"14.2601061013462","Latitude":"36.0361569761089"},{"Id":"8594","Name":"Inez, Luqa","Longitude":"14.5042559112706","Latitude":"35.8640029097646"},{"Id":"7785","Name":"Ingieret, San Vinċenz","Longitude":"14.4827004192421","Latitude":"35.8709896122916"},{"Id":"7827","Name":"Ingieret, San Vinċenz","Longitude":"14.483019014144","Latitude":"35.8713967047657"},{"Id":"8441","Name":"Inglott, Żurrieq","Longitude":"14.4754078944121","Latitude":"35.829520223423"},{"Id":"8463","Name":"Inglott, Żurrieq","Longitude":"14.4749343302192","Latitude":"35.8291394801077"},{"Id":"7685","Name":"Inguanez, Rabat","Longitude":"14.4010801347385","Latitude":"35.8802845602899"},{"Id":"9022","Name":"Inguanez, Rabat","Longitude":"14.4009895417349","Latitude":"35.880545571638"},{"Id":"7850","Name":"Ipogew, Paola","Longitude":"14.5081653684355","Latitude":"35.8694556498467"},{"Id":"7810","Name":"Isfar, Safi","Longitude":"14.4838729083344","Latitude":"35.8370762827856"},{"Id":"7942","Name":"Iskal, Marsaskala","Longitude":"14.5615859285506","Latitude":"35.8641446493577"},{"Id":"8316","Name":"Isla, Isla","Longitude":"14.5170829940259","Latitude":"35.8876050240051"},{"Id":"8140","Name":"Isouard, Mosta","Longitude":"14.4235888735219","Latitude":"35.9112292558165"},{"Id":"8175","Name":"Isouard, Mosta","Longitude":"14.4234090037631","Latitude":"35.9115800136562"},{"Id":"9248","Name":"Ispnott, Xgħajra","Longitude":"14.5455365247134","Latitude":"35.8873914784424"},{"Id":"8582","Name":"Isqof, Żejtun","Longitude":"14.5373597514356","Latitude":"35.85501069133"},{"Id":"7759","Name":"Istabal, Qormi","Longitude":"14.4806373484813","Latitude":"35.8781935234937"},{"Id":"7784","Name":"Istabal, Qormi","Longitude":"14.4809448831765","Latitude":"35.8786005732354"},{"Id":"9456","Name":"Ixtabi, Għarb","Longitude":"14.2175555049274","Latitude":"36.0544860725339"},{"Id":"9365","Name":"Jerma, Marsaskala","Longitude":"14.5731760639233","Latitude":"35.8612741931468"},{"Id":"8504","Name":"Kalafrana, Birżebbuġa","Longitude":"14.5278696299142","Latitude":"35.8193061152671"},{"Id":"9008","Name":"Kalc, Dingli","Longitude":"14.3764316701538","Latitude":"35.8603510437557"},{"Id":"8884","Name":"Kalci, Ta' Giorni","Longitude":"14.4849123482996","Latitude":"35.9160069368282"},{"Id":"8913","Name":"Kalci, Ta' Giorni","Longitude":"14.4848451476979","Latitude":"35.916114839997"},{"Id":"8350","Name":"Kalkara, Kalkara","Longitude":"14.5275679627522","Latitude":"35.8888458528176"},{"Id":"8493","Name":"Kampanjol, Qajjenza","Longitude":"14.5365693236149","Latitude":"35.8328731552415"},{"Id":"8509","Name":"Kampanjol, Qajjenza","Longitude":"14.5367567564295","Latitude":"35.8330091193658"},{"Id":"9673","Name":"Kandja, Imqabba","Longitude":"14.4563443017801","Latitude":"35.847161075284"},{"Id":"9679","Name":"Kandja, Imqabba","Longitude":"14.4565213555374","Latitude":"35.8471799082865"},{"Id":"9466","Name":"Kandlora, Żebbuġ (Malta)","Longitude":"14.4344147617159","Latitude":"35.8694466325451"},{"Id":"8356","Name":"Kangu, Żurrieq","Longitude":"14.4688443399148","Latitude":"35.8292479618324"},{"Id":"8410","Name":"Kangu, Żurrieq","Longitude":"14.4689755110639","Latitude":"35.8295009916357"},{"Id":"8521","Name":"Kannella, Marsaskala","Longitude":"14.5625241420952","Latitude":"35.858693347255"},{"Id":"7722","Name":"Kanun, Ħamrun","Longitude":"14.4836787776563","Latitude":"35.8875111521239"},{"Id":"8284","Name":"Kanun, Ħamrun","Longitude":"14.4836462423922","Latitude":"35.887402820281"},{"Id":"8728","Name":"Kappar, Xlendi","Longitude":"14.2216265730969","Latitude":"36.0322980860435"},{"Id":"9611","Name":"Kappar, Xlendi","Longitude":"14.221139731345","Latitude":"36.0321416589526"},{"Id":"8896","Name":"Kappara, Kappara","Longitude":"14.4826296112404","Latitude":"35.9091269608057"},{"Id":"9487","Name":"Kappella, San Ġwann","Longitude":"14.476573851796","Latitude":"35.909840025332"},{"Id":"9699","Name":"Kappella, San Ġwann","Longitude":"14.4765263156301","Latitude":"35.9103266800096"},{"Id":"8703","Name":"Kapuccini, Rabat (Victoria)","Longitude":"14.2426033376312","Latitude":"36.0463615834855"},{"Id":"8724","Name":"Kapuccini, Rabat (Victoria)","Longitude":"14.2426936127389","Latitude":"36.0462088880457"},{"Id":"9624","Name":"Karkanta, Żebbuġ (Malta)","Longitude":"14.4344219701715","Latitude":"35.8746669292756"},{"Id":"8216","Name":"Karm, Birkirkara","Longitude":"14.4622717306079","Latitude":"35.9041057917158"},{"Id":"8242","Name":"Karm, Birkirkara","Longitude":"14.4629557371691","Latitude":"35.9045596508255"},{"Id":"8759","Name":"Karmni, Ta' Għammar","Longitude":"14.2174694910139","Latitude":"36.0553239619667"},{"Id":"7757","Name":"Karmnu, Ħamrun","Longitude":"14.4885979359554","Latitude":"35.8840880846992"},{"Id":"7834","Name":"Kartaginizi, Qrendi","Longitude":"14.4623273145882","Latitude":"35.8352146711284"},{"Id":"7838","Name":"Kartaginizi, Qrendi","Longitude":"14.4620513083127","Latitude":"35.8350962271325"},{"Id":"7797","Name":"Karwija, Kirkop","Longitude":"14.4844163552839","Latitude":"35.8403604653733"},{"Id":"7813","Name":"Karwija, Kirkop","Longitude":"14.4841388384484","Latitude":"35.8404674672373"},{"Id":"9382","Name":"Kastilja, Valletta","Longitude":"14.5107521807743","Latitude":"35.8955225024897"},{"Id":"9150","Name":"Katarina, Attard","Longitude":"14.438359292719","Latitude":"35.8928255591165"},{"Id":"7870","Name":"Kavallerizza, Marsaxlokk","Longitude":"14.5433549172831","Latitude":"35.8370014551543"},{"Id":"9641","Name":"Kavallieri, Valletta","Longitude":"14.5165912757395","Latitude":"35.8974124591842"},{"Id":"9087","Name":"Kavetta, Buġibba","Longitude":"14.416381169007","Latitude":"35.9494669442595"},{"Id":"9019","Name":"Kbir, Rabat","Longitude":"14.3951924712385","Latitude":"35.8692826191604"},{"Id":"7669","Name":"Kbira, Dingli","Longitude":"14.3841300613135","Latitude":"35.8616800392462"},{"Id":"7671","Name":"Kbira, Dingli","Longitude":"14.3838766522195","Latitude":"35.8615074362041"},{"Id":"8860","Name":"Kemmuna, Nadur","Longitude":"14.2978070017324","Latitude":"36.0356263728438"},{"Id":"8861","Name":"Kemmuna, Nadur","Longitude":"14.2979821140115","Latitude":"36.0359068842933"},{"Id":"8071","Name":"Kennedy, San Pawl il-Baħar","Longitude":"14.4148298604227","Latitude":"35.9448162146369"},{"Id":"9690","Name":"Kennedy, San Pawl il-Baħar","Longitude":"14.4141886731694","Latitude":"35.9445606423771"},{"Id":"9594","Name":"Kenun, Għajnsielem","Longitude":"14.2861484255117","Latitude":"36.0298596227392"},{"Id":"8802","Name":"Kercem, Kerċem","Longitude":"14.2232961027751","Latitude":"36.0408737621355"},{"Id":"8218","Name":"Kieles, Birkirkara","Longitude":"14.4545927529892","Latitude":"35.9023851760624"},{"Id":"8240","Name":"Kieles, Birkirkara","Longitude":"14.4546246358827","Latitude":"35.902583672032"},{"Id":"7765","Name":"Kircippu, Siġġiewi","Longitude":"14.4441489957601","Latitude":"35.8602777012223"},{"Id":"7796","Name":"Kirkop, Kirkop","Longitude":"14.483333713408","Latitude":"35.8416811774897"},{"Id":"7814","Name":"Kirkop, Kirkop","Longitude":"14.4826065364208","Latitude":"35.8411190527557"},{"Id":"7749","Name":"Kittieba, Qormi","Longitude":"14.4671481568286","Latitude":"35.8775844673822"},{"Id":"8708","Name":"Kittina, Għeżien","Longitude":"14.2560747834742","Latitude":"36.0623224498408"},{"Id":"8719","Name":"Kittina, Għeżien","Longitude":"14.2558036562353","Latitude":"36.0616355801229"},{"Id":"8800","Name":"Kixkien, Santa Luċija","Longitude":"14.220019875741","Latitude":"36.0421507433188"},{"Id":"9682","Name":"Klara, Pembroke","Longitude":"14.4705866839655","Latitude":"35.9301807943579"},{"Id":"8895","Name":"Klarissi, San Ġiljan","Longitude":"14.4882881550074","Latitude":"35.9115674865747"},{"Id":"8905","Name":"Klarissi, San Ġiljan","Longitude":"14.4883978198671","Latitude":"35.9117482731492"},{"Id":"8433","Name":"Klementina, Żurrieq","Longitude":"14.4807302926125","Latitude":"35.8299761084728"},{"Id":"8471","Name":"Klementina, Żurrieq","Longitude":"14.4815224342961","Latitude":"35.8307458952905"},{"Id":"8375","Name":"Klieb, Rabat","Longitude":"14.3837921631123","Latitude":"35.8867246678507"},{"Id":"7771","Name":"Knisja, Siġġiewi","Longitude":"14.4377099054918","Latitude":"35.8545856769877"},{"Id":"8819","Name":"Kommittiva, Xagħra","Longitude":"14.2747990194562","Latitude":"36.0510865084134"},{"Id":"8853","Name":"Kommittiva, Għajn Ħosna","Longitude":"14.2749980224175","Latitude":"36.0511778684827"},{"Id":"8174","Name":"Konstituzzjoni, Mosta","Longitude":"14.4205734181969","Latitude":"35.9143973659878"},{"Id":"9299","Name":"Konverzjioni, Naxxar","Longitude":"14.4420422178915","Latitude":"35.9206298832428"},{"Id":"8986","Name":"Konverzjoni, Naxxar","Longitude":"14.4421667348866","Latitude":"35.9202608087208"},{"Id":"9671","Name":"Konvoj, Imqabba","Longitude":"14.4678768358163","Latitude":"35.8431554740672"},{"Id":"9680","Name":"Konvoj, Imqabba","Longitude":"14.4674688820803","Latitude":"35.8428922012617"},{"Id":"8310","Name":"Kordin, Paola","Longitude":"14.510186577422","Latitude":"35.8758111941384"},{"Id":"8898","Name":"Korvu, San Ġwann","Longitude":"14.4796323073767","Latitude":"35.9065083951664"},{"Id":"8903","Name":"Korvu, San Ġwann","Longitude":"14.479166574159","Latitude":"35.9065514558918"},{"Id":"7990","Name":"Kosta, Pembroke","Longitude":"14.471437451766","Latitude":"35.9272723974606"},{"Id":"8079","Name":"Kosta, Pembroke","Longitude":"14.4712116150828","Latitude":"35.9278935023071"},{"Id":"8141","Name":"Kostituzzjoni, Mosta","Longitude":"14.4217470898393","Latitude":"35.913032602723"},{"Id":"9413","Name":"Kraba, Xewkija","Longitude":"14.252821245692","Latitude":"36.0329653388481"},{"Id":"9604","Name":"Kraba, Xewkija","Longitude":"14.2529914771296","Latitude":"36.0325697105864"},{"Id":"8529","Name":"Krawlu, Marsaskala","Longitude":"14.5475171201479","Latitude":"35.866427645624"},{"Id":"8548","Name":"Krawlu, Marsaskala","Longitude":"14.5478246843246","Latitude":"35.8649321380686"},{"Id":"9378","Name":"Kristofru, Valletta","Longitude":"14.513174170646","Latitude":"35.8999051024458"},{"Id":"7968","Name":"Kullegg, Imsida","Longitude":"14.4909786567299","Latitude":"35.8946739635507"},{"Id":"8100","Name":"Kullegg, Imsida","Longitude":"14.4907878679703","Latitude":"35.8950518263592"},{"Id":"9595","Name":"Kullegg, Għajnsielem","Longitude":"14.2889572908379","Latitude":"36.0248365421224"},{"Id":"8112","Name":"Kuncizzjoni, Kappara","Longitude":"14.4824381015394","Latitude":"35.909603981656"},{"Id":"8191","Name":"Kuncizzjoni, Kappara","Longitude":"14.4826471390529","Latitude":"35.9098392975388"},{"Id":"8176","Name":"Kungress, Mosta","Longitude":"14.4282770766099","Latitude":"35.9081231387456"},{"Id":"9415","Name":"Kunsill, Xewkija","Longitude":"14.2567000630265","Latitude":"36.0300683718468"},{"Id":"9602","Name":"Kunsill, Xewkija","Longitude":"14.2565001177864","Latitude":"36.0300851636064"},{"Id":"9098","Name":"Kurcifiss, Valletta","Longitude":"14.5115631486985","Latitude":"35.8933799954688"},{"Id":"9102","Name":"Kurcifiss, Valletta","Longitude":"14.5107559671738","Latitude":"35.8931062300125"},{"Id":"9162","Name":"Kurkanta, Żebbuġ (Malta)","Longitude":"14.4347792626386","Latitude":"35.8742719071952"},{"Id":"9045","Name":"Kutnent, Tarxien","Longitude":"14.516826502715","Latitude":"35.8641623151995"},{"Id":"9285","Name":"Kutnent, Tarxien","Longitude":"14.5171029656486","Latitude":"35.8642355551134"},{"Id":"8856","Name":"Kuxxina, Nadur","Longitude":"14.2910247132375","Latitude":"36.0393550139429"},{"Id":"8865","Name":"Kuxxina, Nadur","Longitude":"14.2906377480334","Latitude":"36.0391814274426"},{"Id":"8644","Name":"Labax, Imġarr","Longitude":"14.2971626776178","Latitude":"36.0294378383231"},{"Id":"8648","Name":"Labax, Imġarr","Longitude":"14.2969774448314","Latitude":"36.0290490778631"},{"Id":"8726","Name":"Labini, Rabat (Victoria)","Longitude":"14.2398299798026","Latitude":"36.0403756821914"},{"Id":"8129","Name":"Labour, Naxxar","Longitude":"14.4432407716087","Latitude":"35.9125120889599"},{"Id":"8181","Name":"Labour, Naxxar","Longitude":"14.4432393187087","Latitude":"35.9127194488838"},{"Id":"8792","Name":"Lamuta, Għarb","Longitude":"14.2104663127203","Latitude":"36.0583884221569"},{"Id":"8363","Name":"Lanza, Siġġiewi","Longitude":"14.4324001092462","Latitude":"35.8412891106837"},{"Id":"8404","Name":"Lanza, Siġġiewi","Longitude":"14.4343269476244","Latitude":"35.8428309233934"},{"Id":"8891","Name":"Lanzon, Ta' Giorni","Longitude":"14.4826676977362","Latitude":"35.9134908505189"},{"Id":"8909","Name":"Lanzon, Ta' Giorni","Longitude":"14.4826240121403","Latitude":"35.913391486746"},{"Id":"9620","Name":"Lapira, Lija","Longitude":"14.4400868067588","Latitude":"35.8992620082411"},{"Id":"9097","Name":"Lascaris, Valletta","Longitude":"14.5126120537807","Latitude":"35.8939883287456"},{"Id":"8530","Name":"Latmija, Marsaskala","Longitude":"14.5437906689887","Latitude":"35.8691814809487"},{"Id":"8547","Name":"Latmija, Żabbar","Longitude":"14.5431880736876","Latitude":"35.869954571386"},{"Id":"9017","Name":"Lawrenti, Rabat","Longitude":"14.3963468231151","Latitude":"35.8645910963846"},{"Id":"8550","Name":"Lawrenz, Żejtun","Longitude":"14.5375262902473","Latitude":"35.8511254052914"},{"Id":"8785","Name":"Lawrenz, San Lawrenz","Longitude":"14.2037907360133","Latitude":"36.0553330616879"},{"Id":"9039","Name":"Lawrenz, Żabbar","Longitude":"14.538965035456","Latitude":"35.8780618924141"},{"Id":"9395","Name":"L-Eghrijel, Gudja","Longitude":"14.5058235323665","Latitude":"35.8469960713895"},